[
    {
        "name": "Valdepe\u00f1as Xtreme Race",
        "date": "23.04.2016",
        "time": "",
        "slug": "160423-valdepe-nas-valdepenas-xtreme-race",
        "distance": 5,
        "distances": 1,
        "address": "",
        "location": "Valdepe\u00f1as",
        "province": "Ciudad Real",
        "region": "Castilla - La Mancha",
        "web": "http:\/\/www.valdepenasxtremerace.blogspot.com.es",
        "phone": "",
        "organizer": "",
        "description": ""
    },
    {
        "name": "I Prueba 51x13 de La Peza",
        "date": "23.04.2016",
        "time": "",
        "slug": "160423-la-peza-i-prueba-51x13-de-la-peza",
        "distance": 51,
        "distances": 1,
        "address": "",
        "location": "La Peza",
        "province": "Granada",
        "region": "Andaluc\u00eda",
        "web": "http:\/\/www.cruzandolameta.es",
        "phone": "",
        "organizer": "",
        "description": ""
    },
    {
        "name": "Challenge Fuerteventura 2016",
        "date": "23.04.2016",
        "time": "06:00",
        "slug": "160423-fuerteventura-challenge-fuerteventura-2016",
        "distance": "Varias distancias",
        "distances": 1,
        "address": "",
        "location": "Fuerteventura",
        "province": "Palmas, Las",
        "region": "Canarias",
        "web": "http:\/\/www.challengefuerteventura.com",
        "phone": "",
        "organizer": "",
        "description": ""
    },
    {
        "name": "10K Alca\u00f1iz",
        "date": "24.04.2016",
        "time": "",
        "slug": "160424-alcaniz-10k-alcaniz",
        "distance": 10,
        "distances": 1,
        "address": "",
        "location": "Alcaniz",
        "province": "Teruel",
        "region": "Arag\u00f3n",
        "web": "http:\/\/www.ticketsport.es\/evento\/10k-alcaiz",
        "phone": "",
        "organizer": "",
        "description": ""
    },
    {
        "name": "Trail Costa de Ajo 2016",
        "date": "24.04.2016",
        "time": "",
        "slug": "160424-ajo-trail-costa-de-ajo-2016",
        "distance": 27,
        "distances": 1,
        "address": "",
        "location": "Ajo",
        "province": "Cantabria",
        "region": "Cantabria",
        "web": "http:\/\/www.costadeajo.blogspot.com.es",
        "phone": "",
        "organizer": "",
        "description": ""
    },
    {
        "name": "Cross Parque la Asomadilla 2016",
        "date": "24.04.2016",
        "time": "",
        "slug": "160424-cordoba-cross-parque-la-asomadilla-2016",
        "distance": 6,
        "distances": 1,
        "address": "",
        "location": "C\u00f3rdoba",
        "province": "C\u00f3rdoba",
        "region": "Andaluc\u00eda",
        "web": "http:\/\/www.carreraspopularescordoba.com",
        "phone": "",
        "organizer": "",
        "description": ""
    },
    {
        "name": "Boga Mendi Martxa",
        "date": "24.04.2016",
        "time": "",
        "slug": "160424-ondarroa-boga-mendi-martxa",
        "distance": 48,
        "distances": 1,
        "address": "",
        "location": "Ondarroa",
        "province": "Bizkaia",
        "region": "Pa\u00eds Vasco",
        "web": "http:\/\/www.boga.aurreramt.org",
        "phone": "",
        "organizer": "",
        "description": ""
    },
    {
        "name": "IX Carrera Villa Santa Olalla",
        "date": "24.04.2016",
        "time": "",
        "slug": "160424-santa-olalla-ix-carrera-villa-santa-olalla",
        "distance": 6.4,
        "distances": 1,
        "address": "",
        "location": "Santa Olalla",
        "province": "Toledo",
        "region": "Castilla - La Mancha",
        "web": "http:\/\/www.evedeport.es",
        "phone": "",
        "organizer": "",
        "description": ""
    },
    {
        "name": "V Cresta Sierra Carbonera",
        "date": "24.04.2016",
        "time": "",
        "slug": "160424-la-linea-de-la-concepcion-v-cresta-sierra-carbonera",
        "distance": 29,
        "distances": 1,
        "address": "",
        "location": "La L\u00ednea de la Concepci\u00f3n",
        "province": "C\u00e1diz",
        "region": "Andaluc\u00eda",
        "web": "http:\/\/www.cdsierracarbonera.com",
        "phone": "",
        "organizer": "",
        "description": ""
    },
    {
        "name": "IV Carrera Vacceos - Cigales",
        "date": "24.04.2016",
        "time": "",
        "slug": "160424-cigales-iv-carrera-vacceos-cigales",
        "distance": 7,
        "distances": 1,
        "address": "",
        "location": "Cigales",
        "province": "Valladolid",
        "region": "Castilla y Le\u00f3n",
        "web": "http:\/\/www.runvasport.es",
        "phone": "",
        "organizer": "",
        "description": ""
    },
    {
        "name": "Imagym Half Marathon",
        "date": "24.04.2016",
        "time": "09:00",
        "slug": "160424-santander-imagym-half-marathon",
        "distance": 21,
        "distances": 1,
        "address": "",
        "location": "Santander",
        "province": "Cantabria",
        "region": "Cantabria",
        "web": "http:\/\/www.uno.es",
        "phone": "",
        "organizer": "",
        "description": ""
    },
    {
        "name": "XXII Medio Marat\u00f3n Bilbao",
        "date": "24.04.2016",
        "time": "10:00",
        "slug": "160424-bilbao-xxii-medio-maraton-bilbao",
        "distance": 21,
        "distances": 1,
        "address": "Gran V\u00eda don Diego L\u00f3pez de Haro",
        "location": "Bilbao",
        "province": "Bizkaia",
        "region": "Pa\u00eds Vasco",
        "web": "http:\/\/www.eventseuskalpress.es",
        "phone": "",
        "organizer": "",
        "description": ""
    },
    {
        "name": "I Trail de Villanueva",
        "date": "30.04.2016",
        "time": "",
        "slug": "160430-villanueva-de-los-castillejos-i-trail-de-villanueva",
        "distance": 20,
        "distances": 1,
        "address": "",
        "location": "Villanueva de los Castillejos",
        "province": "Huelva",
        "region": "Andaluc\u00eda",
        "web": "",
        "phone": "",
        "organizer": "",
        "description": ""
    },
    {
        "name": "IX Carrera de Adra",
        "date": "30.04.2016",
        "time": "",
        "slug": "160430-adra-ix-carrera-de-adra",
        "distance": 10,
        "distances": 1,
        "address": "",
        "location": "Adra",
        "province": "Almer\u00eda",
        "region": "Andaluc\u00eda",
        "web": "http:\/\/www.aqueatacamos.com",
        "phone": "",
        "organizer": "",
        "description": ""
    },
    {
        "name": "XII Cursa de Ses Paparres",
        "date": "30.04.2016",
        "time": "",
        "slug": "160430-son-carrio-mallorca-xii-cursa-de-ses-paparres",
        "distance": 4,
        "distances": 2,
        "address": "",
        "location": "Son Carri\u00f3 (Mallorca)",
        "province": "Balears, Illes",
        "region": "Balears, Illes",
        "web": "http:\/\/www.elitechip.es",
        "phone": "",
        "organizer": "",
        "description": ""
    },
    {
        "name": "XII Cursa de Ses Paparres",
        "date": "30.04.2016",
        "time": "",
        "slug": "160430-son-carrio-mallorca-xii-cursa-de-ses-paparres",
        "distance": 10,
        "distances": 2,
        "address": "",
        "location": "Son Carri\u00f3 (Mallorca)",
        "province": "Balears, Illes",
        "region": "Balears, Illes",
        "web": "http:\/\/www.elitechip.es",
        "phone": "",
        "organizer": "",
        "description": ""
    },
    {
        "name": "VIII Carrera Popular San Antonio",
        "date": "30.04.2016",
        "time": "",
        "slug": "160430-villanueva-de-duero-viii-carrera-popular-san-antonio",
        "distance": "",
        "distances": 1,
        "address": "",
        "location": "Villanueva de Duero",
        "province": "Valladolid",
        "region": "Castilla y Le\u00f3n",
        "web": "http:\/\/www.runvasport.es",
        "phone": "",
        "organizer": "",
        "description": ""
    },
    {
        "name": "I Milla Las gabias Respira",
        "date": "30.04.2016",
        "time": "",
        "slug": "160430-las-gabias-i-milla-las-gabias-respira",
        "distance": 1.609,
        "distances": 1,
        "address": "",
        "location": "Las Gabias",
        "province": "Granada",
        "region": "Andaluc\u00eda",
        "web": "http:\/\/www.global-tempo.com",
        "phone": "",
        "organizer": "",
        "description": ""
    },
    {
        "name": "10K Solidari Abencerraje Ciutat D'Ontinyent",
        "date": "30.04.2016",
        "time": "18:00",
        "slug": "160430-ontinyent-10k-solidari-abencerraje-ciutat-d-ontinyent",
        "distance": 10,
        "distances": 1,
        "address": "Pza. de Baix",
        "location": "Ontinyent",
        "province": "Valencia\/Val\u00e9ncia",
        "region": "Comunitat Valenciana",
        "web": "http:\/\/www.mychip.es",
        "phone": "",
        "organizer": "",
        "description": ""
    },
    {
        "name": "4 Millas por la Torre",
        "date": "30.04.2016",
        "time": "18:00",
        "slug": "160430-la-torre-de-esteban-hambran-4-millas-por-la-torre",
        "distance": 6,
        "distances": 1,
        "address": "",
        "location": "La Torre de Esteban Hambr\u00e1n",
        "province": "Toledo",
        "region": "Castilla - La Mancha",
        "web": "http:\/\/www.evedeport.es",
        "phone": "",
        "organizer": "",
        "description": ""
    },
    {
        "name": "Media Marat\u00f3n de Ibiza 2016",
        "date": "01.05.2016",
        "time": "10:00",
        "slug": "160501-ibiza-media-maraton-de-ibiza-2016",
        "distance": 10,
        "distances": 2,
        "address": "",
        "location": "Ibiza",
        "province": "Balears, Illes",
        "region": "Balears, Illes",
        "web": "http:\/\/www.mediomaratonibiza.com",
        "phone": "",
        "organizer": "A.D. Ibiza Half Triathlon",
        "description": ""
    },
    {
        "name": "Media Marat\u00f3n de Ibiza 2016",
        "date": "01.05.2016",
        "time": "10:00",
        "slug": "160501-ibiza-media-maraton-de-ibiza-2016",
        "distance": 21,
        "distances": 2,
        "address": "",
        "location": "Ibiza",
        "province": "Balears, Illes",
        "region": "Balears, Illes",
        "web": "http:\/\/www.mediomaratonibiza.com",
        "phone": "",
        "organizer": "A.D. Ibiza Half Triathlon",
        "description": ""
    },
    {
        "name": "FestiRun San Sebasti\u00e1n de los Reyes",
        "date": "01.05.2016",
        "time": "10:30",
        "slug": "160501-san-sebastian-de-los-reyes-festirun-san-sebastian-de-los-reyes",
        "distance": 5,
        "distances": 1,
        "address": "",
        "location": "San Sebasti\u00e1n de los Reyes",
        "province": "Madrid",
        "region": "Madrid, Comunidad de",
        "web": "http:\/\/www.festirun.com",
        "phone": "",
        "organizer": "",
        "description": ""
    },
    {
        "name": "Survivor Race Alicante",
        "date": "07.05.2016",
        "time": "",
        "slug": "160507-alicante-survivor-race-alicante",
        "distance": 6,
        "distances": 1,
        "address": "",
        "location": "Alicante",
        "province": "Alicante\/Alacant",
        "region": "Comunitat Valenciana",
        "web": "http:\/\/www.survivor-race.es\/",
        "phone": "",
        "organizer": "",
        "description": ""
    },
    {
        "name": "10\/5 milles Ciudad de Ma\u00f3",
        "date": "07.05.2016",
        "time": "",
        "slug": "160507-mahon-menorca-10-5-milles-ciudad-de-mao",
        "distance": 8,
        "distances": 2,
        "address": "Hornabeque de la Fortaleza de La Mola",
        "location": "Mah\u00f3n (Menorca)",
        "province": "Balears, Illes",
        "region": "Balears, Illes",
        "web": "http:\/\/www.dynamicmenorca.com",
        "phone": "",
        "organizer": "",
        "description": ""
    },
    {
        "name": "10\/5 milles Ciudad de Ma\u00f3",
        "date": "07.05.2016",
        "time": "",
        "slug": "160507-mahon-menorca-10-5-milles-ciudad-de-mao",
        "distance": 16,
        "distances": 2,
        "address": "Hornabeque de la Fortaleza de La Mola",
        "location": "Mah\u00f3n (Menorca)",
        "province": "Balears, Illes",
        "region": "Balears, Illes",
        "web": "http:\/\/www.dynamicmenorca.com",
        "phone": "",
        "organizer": "",
        "description": ""
    },
    {
        "name": "XVIII Ruta de los Marineros",
        "date": "07.05.2016",
        "time": "",
        "slug": "160507-piedras-blancas-xviii-ruta-de-los-marineros",
        "distance": 12,
        "distances": 1,
        "address": "",
        "location": "Piedras Blancas",
        "province": "Asturias",
        "region": "Asturias, Principado de",
        "web": "http:\/\/www.grumar.org",
        "phone": "",
        "organizer": "",
        "description": ""
    },
    {
        "name": "Transvulcania 2016",
        "date": "07.05.2016",
        "time": "08:00",
        "slug": "160507-fuencaliente-de-la-palma-transvulcania-2016",
        "distance": 3,
        "distances": 4,
        "address": "",
        "location": "Fuencaliente de La Palma",
        "province": "Santa Cruz de Tenerife",
        "region": "Canarias",
        "web": "http:\/\/www.transvulcania.info",
        "phone": "",
        "organizer": "",
        "description": ""
    },
    {
        "name": "Transvulcania 2016",
        "date": "07.05.2016",
        "time": "08:00",
        "slug": "160507-fuencaliente-de-la-palma-transvulcania-2016",
        "distance": 21,
        "distances": 4,
        "address": "",
        "location": "Fuencaliente de La Palma",
        "province": "Santa Cruz de Tenerife",
        "region": "Canarias",
        "web": "http:\/\/www.transvulcania.info",
        "phone": "",
        "organizer": "",
        "description": ""
    },
    {
        "name": "Transvulcania 2016",
        "date": "07.05.2016",
        "time": "08:00",
        "slug": "160507-fuencaliente-de-la-palma-transvulcania-2016",
        "distance": 42,
        "distances": 4,
        "address": "",
        "location": "Fuencaliente de La Palma",
        "province": "Santa Cruz de Tenerife",
        "region": "Canarias",
        "web": "http:\/\/www.transvulcania.info",
        "phone": "",
        "organizer": "",
        "description": ""
    },
    {
        "name": "Transvulcania 2016",
        "date": "07.05.2016",
        "time": "08:00",
        "slug": "160507-fuencaliente-de-la-palma-transvulcania-2016",
        "distance": 73,
        "distances": 4,
        "address": "",
        "location": "Fuencaliente de La Palma",
        "province": "Santa Cruz de Tenerife",
        "region": "Canarias",
        "web": "http:\/\/www.transvulcania.info",
        "phone": "",
        "organizer": "",
        "description": ""
    },
    {
        "name": "V Nocturna de Mod\u00fabar",
        "date": "07.05.2016",
        "time": "22:00",
        "slug": "160507-modubar-v-nocturna-de-modubar",
        "distance": 13,
        "distances": 1,
        "address": "",
        "location": "Mod\u00fabar",
        "province": "Burgos",
        "region": "Castilla y Le\u00f3n",
        "web": "http:\/\/www.cmmodubeos.blogspot.com.es",
        "phone": "",
        "organizer": "",
        "description": ""
    },
    {
        "name": "Wings for Life Run",
        "date": "08.05.2016",
        "time": "",
        "slug": "160508-valencia-wings-for-life-run",
        "distance": 10,
        "distances": 1,
        "address": "",
        "location": "Valencia",
        "province": "Valencia\/Val\u00e9ncia",
        "region": "Comunitat Valenciana",
        "web": "http:\/\/www.wingsforlifeworldrun.com",
        "phone": "",
        "organizer": "",
        "description": ""
    },
    {
        "name": "2\u00aa Carrera Popular \"Coraz\u00f3n de la Ribera\"",
        "date": "08.05.2016",
        "time": "",
        "slug": "160508-collbato-2a-carrera-popular-corazon-de-la-ribera",
        "distance": 10,
        "distances": 1,
        "address": "",
        "location": "Collbat\u00f3",
        "province": "Barcelona",
        "region": "Catalu\u00f1a",
        "web": "http:\/\/www.ticketoci.net",
        "phone": "",
        "organizer": "",
        "description": ""
    },
    {
        "name": "III Marat\u00f3 de Montserrat",
        "date": "08.05.2016",
        "time": "",
        "slug": "160508-collbato-iii-marato-de-montserrat",
        "distance": 42,
        "distances": 1,
        "address": "",
        "location": "Collbat\u00f3",
        "province": "Barcelona",
        "region": "Catalu\u00f1a",
        "web": "http:\/\/www.ticketoci.net",
        "phone": "",
        "organizer": "",
        "description": ""
    },
    {
        "name": "Carrera de Tronos",
        "date": "08.05.2016",
        "time": "",
        "slug": "160508-aranjuez-carrera-de-tronos",
        "distance": 10,
        "distances": 1,
        "address": "",
        "location": "Aranjuez",
        "province": "Madrid",
        "region": "Madrid, Comunidad de",
        "web": "http:\/\/www.wingsforsport.es",
        "phone": "",
        "organizer": "Wings for Sport",
        "description": ""
    },
    {
        "name": "Duatl\u00f3n Villaconejos 4Bikershop",
        "date": "08.05.2016",
        "time": "",
        "slug": "160508-villaconejos-duatlon-villaconejos-4bikershop",
        "distance": "5\/20\/2,5 km",
        "distances": 1,
        "address": "",
        "location": "Villaconejos",
        "province": "Madrid",
        "region": "Madrid, Comunidad de",
        "web": "http:\/\/www.ticketsport.es\/evento\/duatlon-villaconejos-4bikershop",
        "phone": "",
        "organizer": "",
        "description": "El precio de la inscripci\u00f3n es de 17,75 \u20ac.<br>"
    },
    {
        "name": "V Carrera Solidaria PINTO con el S\u00e1hara",
        "date": "08.05.2016",
        "time": "",
        "slug": "160508-pinto-v-carrera-solidaria-pinto-con-el-sahara",
        "distance": 10,
        "distances": 1,
        "address": "Parque Juan Carlos I",
        "location": "Pinto",
        "province": "Madrid",
        "region": "Madrid, Comunidad de",
        "web": "http:\/\/www.pintoconelsahara.org",
        "phone": "",
        "organizer": "",
        "description": "El precio de la inscripci\u00f3n es de 9,60 \u20ac.<br>"
    },
    {
        "name": "1\u00aa Carrera Popular de Villaverde de Medina",
        "date": "08.05.2016",
        "time": "11:00",
        "slug": "160508-villaverde-de-medina-1a-carrera-popular-de-villaverde-de-medina",
        "distance": 4.5,
        "distances": 2,
        "address": "Pza. Mayor",
        "location": "Villaverde de Medina",
        "province": "Valladolid",
        "region": "Castilla y Le\u00f3n",
        "web": "http:\/\/www.runvasport.es",
        "phone": "",
        "organizer": "",
        "description": "El precio de la inscripci\u00f3n es de 4 \u20ac.<br>"
    },
    {
        "name": "1\u00aa Carrera Popular de Villaverde de Medina",
        "date": "08.05.2016",
        "time": "11:00",
        "slug": "160508-villaverde-de-medina-1a-carrera-popular-de-villaverde-de-medina",
        "distance": 9,
        "distances": 2,
        "address": "Pza. Mayor",
        "location": "Villaverde de Medina",
        "province": "Valladolid",
        "region": "Castilla y Le\u00f3n",
        "web": "http:\/\/www.runvasport.es",
        "phone": "",
        "organizer": "",
        "description": "El precio de la inscripci\u00f3n es de 4 \u20ac.<br>"
    },
    {
        "name": "Zeberio Harana Mendi Martxa",
        "date": "14.05.2016",
        "time": "",
        "slug": "160514-zeberio-zeberio-harana-mendi-martxa",
        "distance": 48,
        "distances": 1,
        "address": "",
        "location": " Zeberio",
        "province": "Bizkaia",
        "region": "Pa\u00eds Vasco",
        "web": "http:\/\/www.austarrimenditaldea.com",
        "phone": "",
        "organizer": "",
        "description": ""
    },
    {
        "name": "II Circular de Cardones",
        "date": "14.05.2016",
        "time": "",
        "slug": "160514-arucas-ii-circular-de-cardones",
        "distance": 7,
        "distances": 2,
        "address": "",
        "location": "Arucas",
        "province": "Palmas, Las",
        "region": "Canarias",
        "web": "http:\/\/www.macacofittrail.es",
        "phone": "",
        "organizer": "",
        "description": ""
    },
    {
        "name": "II Circular de Cardones",
        "date": "14.05.2016",
        "time": "",
        "slug": "160514-arucas-ii-circular-de-cardones",
        "distance": 12,
        "distances": 2,
        "address": "",
        "location": "Arucas",
        "province": "Palmas, Las",
        "region": "Canarias",
        "web": "http:\/\/www.macacofittrail.es",
        "phone": "",
        "organizer": "",
        "description": ""
    },
    {
        "name": "IV Carrera Playa de Salinas",
        "date": "14.05.2016",
        "time": "",
        "slug": "160514-salinas-iv-carrera-playa-de-salinas",
        "distance": 6.2,
        "distances": 1,
        "address": "",
        "location": "Salinas",
        "province": "Asturias",
        "region": "Asturias, Principado de",
        "web": "http:\/\/www.clubespartal.com",
        "phone": "",
        "organizer": "",
        "description": ""
    },
    {
        "name": "III Carrera Gu\u00eda de Isora",
        "date": "14.05.2016",
        "time": "",
        "slug": "160514-guia-de-isora-iii-carrera-guia-de-isora",
        "distance": 5,
        "distances": 2,
        "address": "",
        "location": "Gu\u00eda de Isora",
        "province": "Santa Cruz de Tenerife",
        "region": "Canarias",
        "web": "http:\/\/www.mdsports.es\/9-km-carrera-nocturna-guia-de-isora-2016.html",
        "phone": "",
        "organizer": "",
        "description": ""
    },
    {
        "name": "III Carrera Gu\u00eda de Isora",
        "date": "14.05.2016",
        "time": "",
        "slug": "160514-guia-de-isora-iii-carrera-guia-de-isora",
        "distance": 10,
        "distances": 2,
        "address": "",
        "location": "Gu\u00eda de Isora",
        "province": "Santa Cruz de Tenerife",
        "region": "Canarias",
        "web": "http:\/\/www.mdsports.es\/9-km-carrera-nocturna-guia-de-isora-2016.html",
        "phone": "",
        "organizer": "",
        "description": ""
    },
    {
        "name": "XIV Marat\u00f3n Mart\u00edn Fiz",
        "date": "15.05.2016",
        "time": "",
        "slug": "160515-vitoria-gasteiz-xiv-maraton-martin-fiz",
        "distance": 10,
        "distances": 3,
        "address": "",
        "location": "Vitoria-Gasteiz",
        "province": "Araba\/\u00c1lava",
        "region": "Pa\u00eds Vasco",
        "web": "http:\/\/www.maratonmartinfiz.com",
        "phone": "",
        "organizer": "",
        "description": ""
    },
    {
        "name": "XIV Marat\u00f3n Mart\u00edn Fiz",
        "date": "15.05.2016",
        "time": "",
        "slug": "160515-vitoria-gasteiz-xiv-maraton-martin-fiz",
        "distance": 21,
        "distances": 3,
        "address": "",
        "location": "Vitoria-Gasteiz",
        "province": "Araba\/\u00c1lava",
        "region": "Pa\u00eds Vasco",
        "web": "http:\/\/www.maratonmartinfiz.com",
        "phone": "",
        "organizer": "",
        "description": ""
    },
    {
        "name": "XIV Marat\u00f3n Mart\u00edn Fiz",
        "date": "15.05.2016",
        "time": "",
        "slug": "160515-vitoria-gasteiz-xiv-maraton-martin-fiz",
        "distance": 42,
        "distances": 3,
        "address": "",
        "location": "Vitoria-Gasteiz",
        "province": "Araba\/\u00c1lava",
        "region": "Pa\u00eds Vasco",
        "web": "http:\/\/www.maratonmartinfiz.com",
        "phone": "",
        "organizer": "",
        "description": ""
    },
    {
        "name": "V Carrera entre Pinto y Valdemoro",
        "date": "15.05.2016",
        "time": "",
        "slug": "160515-pinto-v-carrera-entre-pinto-y-valdemoro",
        "distance": 14,
        "distances": 1,
        "address": "Parque Juan Carlos I (Pinto)",
        "location": "Pinto",
        "province": "Madrid",
        "region": "Madrid, Comunidad de",
        "web": "http:\/\/www.carreracontinua.es\/#sthash.1D5VkITC.dpuf",
        "phone": "",
        "organizer": "",
        "description": ""
    },
    {
        "name": "II Carrera por Monta\u00f1a Graderas Valle Vi\u00f3",
        "date": "15.05.2016",
        "time": "",
        "slug": "160515-buerba-ii-carrera-por-montana-graderas-valle-vio",
        "distance": 57,
        "distances": 1,
        "address": "",
        "location": "Buerba",
        "province": "Huesca",
        "region": "Arag\u00f3n",
        "web": "http:\/\/www.vallevio.com",
        "phone": "",
        "organizer": "",
        "description": ""
    },
    {
        "name": "V Compressport Trail Menorca Cam\u00ed de Cavalls",
        "date": "20.05.2016",
        "time": "",
        "slug": "160520-menorca-v-compressport-trail-menorca-cami-de-cavalls",
        "distance": "Varias distancias",
        "distances": 1,
        "address": "",
        "location": "Menorca",
        "province": "Balears, Illes",
        "region": "Balears, Illes",
        "web": "http:\/\/www.trailmenorca.com",
        "phone": "",
        "organizer": "",
        "description": ""
    },
    {
        "name": "Fonteide Teno Trail",
        "date": "21.05.2016",
        "time": "",
        "slug": "160521-buanavista-del-norte-fonteide-teno-trail",
        "distance": 12,
        "distances": 1,
        "address": "",
        "location": "Buanavista del Norte",
        "province": "Santa Cruz de Tenerife",
        "region": "Canarias",
        "web": "http:\/\/www.gesportcanarias.com",
        "phone": "",
        "organizer": "",
        "description": ""
    },
    {
        "name": "Correr sin GLU10",
        "date": "22.05.2016",
        "time": "",
        "slug": "160522-las-rozas-correr-sin-glu10",
        "distance": 5,
        "distances": 2,
        "address": "Polideportivo Dehesa de Navalcarb\u00f3n",
        "location": "Las Rozas",
        "province": "Madrid",
        "region": "Madrid, Comunidad de",
        "web": "http:\/\/www.corrersinglu10.com",
        "phone": "91 447 96 41",
        "organizer": "A.D. MaPoMa",
        "description": "El precio de la inscripci\u00f3n es de 10,60 \u20ac.<br>"
    },
    {
        "name": "Correr sin GLU10",
        "date": "22.05.2016",
        "time": "",
        "slug": "160522-las-rozas-correr-sin-glu10",
        "distance": 10,
        "distances": 2,
        "address": "Polideportivo Dehesa de Navalcarb\u00f3n",
        "location": "Las Rozas",
        "province": "Madrid",
        "region": "Madrid, Comunidad de",
        "web": "http:\/\/www.corrersinglu10.com",
        "phone": "91 447 96 41",
        "organizer": "A.D. MaPoMa",
        "description": "El precio de la inscripci\u00f3n es de 10,60 \u20ac.<br>"
    },
    {
        "name": "IX Carrera Liberty",
        "date": "22.05.2016",
        "time": "",
        "slug": "160522-madrid-ix-carrera-liberty",
        "distance": 10,
        "distances": 1,
        "address": "C\/ Goya (junto al Palacio de Deportes)",
        "location": "Madrid",
        "province": "Madrid",
        "region": "Madrid, Comunidad de",
        "web": "http:\/\/www.carreraliberty.es",
        "phone": "",
        "organizer": "",
        "description": ""
    },
    {
        "name": "IV Mineros Trail",
        "date": "22.05.2016",
        "time": "",
        "slug": "160522-cabezarrubias-del-puerto-iv-mineros-trail",
        "distance": 14,
        "distances": 2,
        "address": "",
        "location": "Cabezarrubias del Puerto",
        "province": "Ciudad Real",
        "region": "Castilla - La Mancha",
        "web": "http:\/\/www.minerostrail.com",
        "phone": "",
        "organizer": "",
        "description": ""
    },
    {
        "name": "IV Mineros Trail",
        "date": "22.05.2016",
        "time": "",
        "slug": "160522-cabezarrubias-del-puerto-iv-mineros-trail",
        "distance": 26,
        "distances": 2,
        "address": "",
        "location": "Cabezarrubias del Puerto",
        "province": "Ciudad Real",
        "region": "Castilla - La Mancha",
        "web": "http:\/\/www.minerostrail.com",
        "phone": "",
        "organizer": "",
        "description": ""
    },
    {
        "name": "VII Animal Trail",
        "date": "22.05.2016",
        "time": "",
        "slug": "160522-el-burgo-vii-animal-trail",
        "distance": 11,
        "distances": 4,
        "address": "",
        "location": "El Burgo",
        "province": "M\u00e1laga",
        "region": "Andaluc\u00eda",
        "web": "http:\/\/www.global-tempo.com",
        "phone": "",
        "organizer": "",
        "description": ""
    },
    {
        "name": "VII Animal Trail",
        "date": "22.05.2016",
        "time": "",
        "slug": "160522-el-burgo-vii-animal-trail",
        "distance": 26,
        "distances": 4,
        "address": "",
        "location": "El Burgo",
        "province": "M\u00e1laga",
        "region": "Andaluc\u00eda",
        "web": "http:\/\/www.global-tempo.com",
        "phone": "",
        "organizer": "",
        "description": ""
    },
    {
        "name": "VII Animal Trail",
        "date": "22.05.2016",
        "time": "",
        "slug": "160522-el-burgo-vii-animal-trail",
        "distance": 39,
        "distances": 4,
        "address": "",
        "location": "El Burgo",
        "province": "M\u00e1laga",
        "region": "Andaluc\u00eda",
        "web": "http:\/\/www.global-tempo.com",
        "phone": "",
        "organizer": "",
        "description": ""
    },
    {
        "name": "VII Animal Trail",
        "date": "22.05.2016",
        "time": "",
        "slug": "160522-el-burgo-vii-animal-trail",
        "distance": 56,
        "distances": 4,
        "address": "",
        "location": "El Burgo",
        "province": "M\u00e1laga",
        "region": "Andaluc\u00eda",
        "web": "http:\/\/www.global-tempo.com",
        "phone": "",
        "organizer": "",
        "description": ""
    },
    {
        "name": "FestiRun Elche",
        "date": "22.05.2016",
        "time": "10:00",
        "slug": "160522-elche-festirun-elche",
        "distance": 5,
        "distances": 1,
        "address": "",
        "location": "Elche",
        "province": "Alicante\/Alacant",
        "region": "Comunitat Valenciana",
        "web": "http:\/\/www.festirun.com",
        "phone": "",
        "organizer": "",
        "description": ""
    },
    {
        "name": "III Carrera contra la Malaltia de Crohn I",
        "date": "22.05.2016",
        "time": "10:00",
        "slug": "160522-algemesi-iii-carrera-contra-la-malaltia-de-crohn-i",
        "distance": 5,
        "distances": 1,
        "address": "",
        "location": "Algemes\u00ed",
        "province": "Valencia\/Val\u00e9ncia",
        "region": "Comunitat Valenciana",
        "web": "http:\/\/www.algemesiweb.es",
        "phone": "",
        "organizer": "",
        "description": ""
    },
    {
        "name": "3a Cursa Popular El Masnou",
        "date": "29.05.2016",
        "time": "",
        "slug": "160529-el-masnou-3a-cursa-popular-el-masnou",
        "distance": 5,
        "distances": 1,
        "address": "",
        "location": "El Masnou",
        "province": "Barcelona",
        "region": "Catalu\u00f1a",
        "web": "http:\/\/www.lasansi.com\/ca\/cursa-el-masnou\/",
        "phone": "",
        "organizer": "Club Atletisme La Sansi",
        "description": ""
    },
    {
        "name": "Carrera Renault Street Run Valencia",
        "date": "29.05.2016",
        "time": "",
        "slug": "160529-valencia-carrera-renault-street-run-valencia",
        "distance": 5,
        "distances": 2,
        "address": "",
        "location": "Valencia",
        "province": "Valencia\/Val\u00e9ncia",
        "region": "Comunitat Valenciana",
        "web": "http:\/\/www.renaultstreetrun.com\/",
        "phone": "",
        "organizer": "",
        "description": ""
    },
    {
        "name": "Carrera Renault Street Run Valencia",
        "date": "29.05.2016",
        "time": "",
        "slug": "160529-valencia-carrera-renault-street-run-valencia",
        "distance": 10,
        "distances": 2,
        "address": "",
        "location": "Valencia",
        "province": "Valencia\/Val\u00e9ncia",
        "region": "Comunitat Valenciana",
        "web": "http:\/\/www.renaultstreetrun.com\/",
        "phone": "",
        "organizer": "",
        "description": ""
    },
    {
        "name": "II Triatl\u00f3n Ciudad de Guadix",
        "date": "29.05.2016",
        "time": "",
        "slug": "160529-guadix-ii-triatlon-ciudad-de-guadix",
        "distance": "750 m\/25 km\/5 km",
        "distances": 1,
        "address": "",
        "location": "Guadix",
        "province": "Granada",
        "region": "Andaluc\u00eda",
        "web": "http:\/\/www.global-tempo.com",
        "phone": "",
        "organizer": "",
        "description": ""
    },
    {
        "name": "37\u00aa Carrera del Agua",
        "date": "29.05.2016",
        "time": "09:00",
        "slug": "160529-madrid-37a-carrera-del-agua",
        "distance": 5,
        "distances": 2,
        "address": "C\/ General L\u00f3pez Pozas",
        "location": "Madrid",
        "province": "Madrid",
        "region": "Madrid, Comunidad de",
        "web": "http:\/\/www.lacarreradelagua.com",
        "phone": "914479631",
        "organizer": "A.D. MaPoMa",
        "description": "El precio de la inscripci\u00f3n es de 12,60 \u20ac (8,60 \u20ac para la prueba de 5 km).<br>"
    },
    {
        "name": "37\u00aa Carrera del Agua",
        "date": "29.05.2016",
        "time": "09:00",
        "slug": "160529-madrid-37a-carrera-del-agua",
        "distance": 10,
        "distances": 2,
        "address": "C\/ General L\u00f3pez Pozas",
        "location": "Madrid",
        "province": "Madrid",
        "region": "Madrid, Comunidad de",
        "web": "http:\/\/www.lacarreradelagua.com",
        "phone": "914479631",
        "organizer": "A.D. MaPoMa",
        "description": "El precio de la inscripci\u00f3n es de 12,60 \u20ac (8,60 \u20ac para la prueba de 5 km).<br>"
    },
    {
        "name": "Wild World Race",
        "date": "29.05.2016",
        "time": "10:00",
        "slug": "160529-valverde-del-camino-wild-world-race",
        "distance": 10,
        "distances": 1,
        "address": "circuito municipal de motocross La Arenas",
        "location": " Valverde del Camino",
        "province": "Huelva",
        "region": "Andaluc\u00eda",
        "web": "http:\/\/www.wildworldrace.com",
        "phone": "",
        "organizer": "",
        "description": ""
    },
    {
        "name": "FestiRun M\u00f3stoles",
        "date": "29.05.2016",
        "time": "10:30",
        "slug": "160529-mostoles-festirun-mostoles",
        "distance": 5,
        "distances": 1,
        "address": "",
        "location": "M\u00f3stoles",
        "province": "Madrid",
        "region": "Madrid, Comunidad de",
        "web": "http:\/\/www.festirun.com",
        "phone": "",
        "organizer": "",
        "description": ""
    },
    {
        "name": "VIII Formentera to Run",
        "date": "30.05.2016",
        "time": "",
        "slug": "160530-formentera-viii-formentera-to-run",
        "distance": "Varias distancias",
        "distances": 1,
        "address": "",
        "location": "Formentera",
        "province": "Balears, Illes",
        "region": "Balears, Illes",
        "web": "http:\/\/www.formenteratorun.com\/index.php?lang=es",
        "phone": "",
        "organizer": "",
        "description": ""
    },
    {
        "name": "III Medio Marat\u00f3n de Trail de Formentera",
        "date": "04.06.2016",
        "time": "",
        "slug": "160604-formentera-iii-medio-maraton-de-trail-de-formentera",
        "distance": 21,
        "distances": 1,
        "address": "Faro de la Mola",
        "location": "Formentera",
        "province": "Balears, Illes",
        "region": "Balears, Illes",
        "web": "http:\/\/www.formenteratrail.com\/index.php?lang=es",
        "phone": "",
        "organizer": "",
        "description": "El precio de la inscripci\u00f3n es de 50 \u20ac.<br>"
    },
    {
        "name": "RIAZA Trail Challenge",
        "date": "04.06.2016",
        "time": "",
        "slug": "160604-riaza-riaza-trail-challenge",
        "distance": 11,
        "distances": 4,
        "address": "",
        "location": "Riaza",
        "province": "Segovia",
        "region": "Castilla y Le\u00f3n",
        "web": "http:\/\/www.trailchallenge.es",
        "phone": "",
        "organizer": "",
        "description": ""
    },
    {
        "name": "RIAZA Trail Challenge",
        "date": "04.06.2016",
        "time": "",
        "slug": "160604-riaza-riaza-trail-challenge",
        "distance": 20,
        "distances": 4,
        "address": "",
        "location": "Riaza",
        "province": "Segovia",
        "region": "Castilla y Le\u00f3n",
        "web": "http:\/\/www.trailchallenge.es",
        "phone": "",
        "organizer": "",
        "description": ""
    },
    {
        "name": "RIAZA Trail Challenge",
        "date": "04.06.2016",
        "time": "",
        "slug": "160604-riaza-riaza-trail-challenge",
        "distance": 40,
        "distances": 4,
        "address": "",
        "location": "Riaza",
        "province": "Segovia",
        "region": "Castilla y Le\u00f3n",
        "web": "http:\/\/www.trailchallenge.es",
        "phone": "",
        "organizer": "",
        "description": ""
    },
    {
        "name": "RIAZA Trail Challenge",
        "date": "04.06.2016",
        "time": "",
        "slug": "160604-riaza-riaza-trail-challenge",
        "distance": 60,
        "distances": 4,
        "address": "",
        "location": "Riaza",
        "province": "Segovia",
        "region": "Castilla y Le\u00f3n",
        "web": "http:\/\/www.trailchallenge.es",
        "phone": "",
        "organizer": "",
        "description": ""
    },
    {
        "name": "VI Carrera de Monta\u00f1a Pico Zapatero",
        "date": "05.06.2016",
        "time": "",
        "slug": "160605-sotalbo-vi-carrera-de-montana-pico-zapatero",
        "distance": 22,
        "distances": 1,
        "address": "",
        "location": "Sotalbo",
        "province": "\u00c1vila",
        "region": "Castilla y Le\u00f3n",
        "web": "http:\/\/www.grupoalmanzor.es",
        "phone": "",
        "organizer": "",
        "description": ""
    },
    {
        "name": "Carrera del Medio Ambiente ECORUN 2016",
        "date": "05.06.2016",
        "time": "",
        "slug": "160605-madrid-carrera-del-medio-ambiente-ecorun-2016",
        "distance": 5,
        "distances": 2,
        "address": "Casa de Campo",
        "location": "Madrid",
        "province": "Madrid",
        "region": "Madrid, Comunidad de",
        "web": "http:\/\/www.carreradelmedioambiente.com",
        "phone": "",
        "organizer": "",
        "description": ""
    },
    {
        "name": "Carrera del Medio Ambiente ECORUN 2016",
        "date": "05.06.2016",
        "time": "",
        "slug": "160605-madrid-carrera-del-medio-ambiente-ecorun-2016",
        "distance": 10,
        "distances": 2,
        "address": "Casa de Campo",
        "location": "Madrid",
        "province": "Madrid",
        "region": "Madrid, Comunidad de",
        "web": "http:\/\/www.carreradelmedioambiente.com",
        "phone": "",
        "organizer": "",
        "description": ""
    },
    {
        "name": "Corre con Todas tus Fuerzas",
        "date": "05.06.2016",
        "time": "09:00",
        "slug": "160605-madrid-corre-con-todas-tus-fuerzas",
        "distance": 5,
        "distances": 2,
        "address": "",
        "location": "Madrid",
        "province": "Madrid",
        "region": "Madrid, Comunidad de",
        "web": "http:\/\/www.correcontodastusfuerzas.com\/",
        "phone": "",
        "organizer": "",
        "description": ""
    },
    {
        "name": "Corre con Todas tus Fuerzas",
        "date": "05.06.2016",
        "time": "09:00",
        "slug": "160605-madrid-corre-con-todas-tus-fuerzas",
        "distance": 10,
        "distances": 2,
        "address": "",
        "location": "Madrid",
        "province": "Madrid",
        "region": "Madrid, Comunidad de",
        "web": "http:\/\/www.correcontodastusfuerzas.com\/",
        "phone": "",
        "organizer": "",
        "description": ""
    },
    {
        "name": "VII Carrera Popular de La Cabrera",
        "date": "11.06.2016",
        "time": "",
        "slug": "160611-la-cabrera-vii-carrera-popular-de-la-cabrera",
        "distance": 5,
        "distances": 2,
        "address": "",
        "location": "La Cabrera",
        "province": "Madrid",
        "region": "Madrid, Comunidad de",
        "web": "http:\/\/www.g40386.wix.com\/trisquelteam",
        "phone": "",
        "organizer": "",
        "description": ""
    },
    {
        "name": "VII Carrera Popular de La Cabrera",
        "date": "11.06.2016",
        "time": "",
        "slug": "160611-la-cabrera-vii-carrera-popular-de-la-cabrera",
        "distance": 15,
        "distances": 2,
        "address": "",
        "location": "La Cabrera",
        "province": "Madrid",
        "region": "Madrid, Comunidad de",
        "web": "http:\/\/www.g40386.wix.com\/trisquelteam",
        "phone": "",
        "organizer": "",
        "description": ""
    },
    {
        "name": "Carrera Renault Street Run Palma de Mallorca",
        "date": "11.06.2016",
        "time": "",
        "slug": "160611-palma-de-mallorca-carrera-renault-street-run-palma-de-mallorca",
        "distance": 5,
        "distances": 2,
        "address": "",
        "location": "Palma de Mallorca",
        "province": "Balears, Illes",
        "region": "Balears, Illes",
        "web": "http:\/\/www.renaultstreetrun.com\/",
        "phone": "",
        "organizer": "",
        "description": ""
    },
    {
        "name": "Carrera Renault Street Run Palma de Mallorca",
        "date": "11.06.2016",
        "time": "",
        "slug": "160611-palma-de-mallorca-carrera-renault-street-run-palma-de-mallorca",
        "distance": 10,
        "distances": 2,
        "address": "",
        "location": "Palma de Mallorca",
        "province": "Balears, Illes",
        "region": "Balears, Illes",
        "web": "http:\/\/www.renaultstreetrun.com\/",
        "phone": "",
        "organizer": "",
        "description": ""
    },
    {
        "name": "Tenerife Blue Trail 2016",
        "date": "11.06.2016",
        "time": "06:00",
        "slug": "160611-los-cristianos-tenerife-blue-trail-2016",
        "distance": 8,
        "distances": 5,
        "address": "",
        "location": "Los Cristianos ",
        "province": "Santa Cruz de Tenerife",
        "region": "Canarias",
        "web": "http:\/\/www.tenerifebluetrail.com",
        "phone": "",
        "organizer": "",
        "description": ""
    },
    {
        "name": "Tenerife Blue Trail 2016",
        "date": "11.06.2016",
        "time": "06:00",
        "slug": "160611-los-cristianos-tenerife-blue-trail-2016",
        "distance": 20,
        "distances": 5,
        "address": "",
        "location": "Los Cristianos ",
        "province": "Santa Cruz de Tenerife",
        "region": "Canarias",
        "web": "http:\/\/www.tenerifebluetrail.com",
        "phone": "",
        "organizer": "",
        "description": ""
    },
    {
        "name": "Tenerife Blue Trail 2016",
        "date": "11.06.2016",
        "time": "06:00",
        "slug": "160611-los-cristianos-tenerife-blue-trail-2016",
        "distance": 43,
        "distances": 5,
        "address": "",
        "location": "Los Cristianos ",
        "province": "Santa Cruz de Tenerife",
        "region": "Canarias",
        "web": "http:\/\/www.tenerifebluetrail.com",
        "phone": "",
        "organizer": "",
        "description": ""
    },
    {
        "name": "Tenerife Blue Trail 2016",
        "date": "11.06.2016",
        "time": "06:00",
        "slug": "160611-los-cristianos-tenerife-blue-trail-2016",
        "distance": 66,
        "distances": 5,
        "address": "",
        "location": "Los Cristianos ",
        "province": "Santa Cruz de Tenerife",
        "region": "Canarias",
        "web": "http:\/\/www.tenerifebluetrail.com",
        "phone": "",
        "organizer": "",
        "description": ""
    },
    {
        "name": "Tenerife Blue Trail 2016",
        "date": "11.06.2016",
        "time": "06:00",
        "slug": "160611-los-cristianos-tenerife-blue-trail-2016",
        "distance": 97,
        "distances": 5,
        "address": "",
        "location": "Los Cristianos ",
        "province": "Santa Cruz de Tenerife",
        "region": "Canarias",
        "web": "http:\/\/www.tenerifebluetrail.com",
        "phone": "",
        "organizer": "",
        "description": ""
    },
    {
        "name": "10K Avil\u00e9s 2016",
        "date": "18.06.2016",
        "time": "",
        "slug": "160618-aviles-10k-aviles-2016",
        "distance": 10,
        "distances": 1,
        "address": "",
        "location": "Avil\u00e9s",
        "province": "Asturias",
        "region": "Asturias, Principado de",
        "web": "http:\/\/www.esportate.es",
        "phone": "",
        "organizer": "",
        "description": ""
    },
    {
        "name": "III EDP San FERM\u00cdN Marathon",
        "date": "18.06.2016",
        "time": "",
        "slug": "160618-pamplona-iii-edp-san-fermin-marathon",
        "distance": 21,
        "distances": 2,
        "address": "",
        "location": "Pamplona",
        "province": "Navarra",
        "region": "Navarra, Comunidad Foral de",
        "web": "http:\/\/www.sanferminmarathon.com\/",
        "phone": "",
        "organizer": "",
        "description": ""
    },
    {
        "name": "III EDP San FERM\u00cdN Marathon",
        "date": "18.06.2016",
        "time": "",
        "slug": "160618-pamplona-iii-edp-san-fermin-marathon",
        "distance": 41,
        "distances": 2,
        "address": "",
        "location": "Pamplona",
        "province": "Navarra",
        "region": "Navarra, Comunidad Foral de",
        "web": "http:\/\/www.sanferminmarathon.com\/",
        "phone": "",
        "organizer": "",
        "description": ""
    },
    {
        "name": "Lanzarote Winerun 2016",
        "date": "19.06.2016",
        "time": "",
        "slug": "160619-la-geria-lanzarote-winerun-2016",
        "distance": "Varias distancias",
        "distances": 1,
        "address": "",
        "location": " La Geria",
        "province": "Palmas, Las",
        "region": "Canarias",
        "web": "http:\/\/www.lanzarotewinerun.com\/es\/",
        "phone": "",
        "organizer": "",
        "description": ""
    },
    {
        "name": "VII Carrera Norte vs Sur",
        "date": "19.06.2016",
        "time": "09:00",
        "slug": "160619-madrid-vii-carrera-norte-vs-sur",
        "distance": 10,
        "distances": 1,
        "address": "C\/ Mateo Inurria",
        "location": "Madrid",
        "province": "Madrid",
        "region": "Madrid, Comunidad de",
        "web": "http:\/\/www.lacarrerademadrid.com\/",
        "phone": "",
        "organizer": "",
        "description": "El precio de la inscripci\u00f3n es de 12,60 \u20ac.<br>"
    },
    {
        "name": "Kosta Trail 2016",
        "date": "21.06.2016",
        "time": "",
        "slug": "160621-sopela-kosta-trail-2016",
        "distance": 10,
        "distances": 3,
        "address": "",
        "location": "Sopela",
        "province": "Bizkaia",
        "region": "Pa\u00eds Vasco",
        "web": "http:\/\/www.kostatrail.com",
        "phone": "",
        "organizer": "",
        "description": ""
    },
    {
        "name": "Kosta Trail 2016",
        "date": "21.06.2016",
        "time": "",
        "slug": "160621-sopela-kosta-trail-2016",
        "distance": 20,
        "distances": 3,
        "address": "",
        "location": "Sopela",
        "province": "Bizkaia",
        "region": "Pa\u00eds Vasco",
        "web": "http:\/\/www.kostatrail.com",
        "phone": "",
        "organizer": "",
        "description": ""
    },
    {
        "name": "Kosta Trail 2016",
        "date": "21.06.2016",
        "time": "",
        "slug": "160621-sopela-kosta-trail-2016",
        "distance": 30,
        "distances": 3,
        "address": "",
        "location": "Sopela",
        "province": "Bizkaia",
        "region": "Pa\u00eds Vasco",
        "web": "http:\/\/www.kostatrail.com",
        "phone": "",
        "organizer": "",
        "description": ""
    },
    {
        "name": "Km vertical Brieva de Cameros",
        "date": "25.06.2016",
        "time": "",
        "slug": "160625-brieva-de-cameros-km-vertical-brieva-de-cameros",
        "distance": "Varias distancias",
        "distances": 1,
        "address": "",
        "location": "Brieva de Cameros",
        "province": "Rioja, La",
        "region": "Rioja, La",
        "web": "http:\/\/www.maspormenostrail.es\/",
        "phone": "",
        "organizer": "",
        "description": ""
    },
    {
        "name": "Media Marat\u00f3n de Monta\u00f1a Brieva de Cameros",
        "date": "26.06.2016",
        "time": "",
        "slug": "160626-brieva-de-cameros-media-maraton-de-montana-brieva-de-cameros",
        "distance": 21,
        "distances": 1,
        "address": "",
        "location": "Brieva de Cameros",
        "province": "Rioja, La",
        "region": "Rioja, La",
        "web": "http:\/\/www.maspormenostrail.es\/",
        "phone": "",
        "organizer": "",
        "description": ""
    },
    {
        "name": "Carrera Renault Street Run Oviedo",
        "date": "26.06.2016",
        "time": "",
        "slug": "160626-oviedo-carrera-renault-street-run-oviedo",
        "distance": 5,
        "distances": 2,
        "address": "",
        "location": "Oviedo",
        "province": "Asturias",
        "region": "Asturias, Principado de",
        "web": "http:\/\/www.renaultstreetrun.com\/",
        "phone": "",
        "organizer": "",
        "description": ""
    },
    {
        "name": "Carrera Renault Street Run Oviedo",
        "date": "26.06.2016",
        "time": "",
        "slug": "160626-oviedo-carrera-renault-street-run-oviedo",
        "distance": 10,
        "distances": 2,
        "address": "",
        "location": "Oviedo",
        "province": "Asturias",
        "region": "Asturias, Principado de",
        "web": "http:\/\/www.renaultstreetrun.com\/",
        "phone": "",
        "organizer": "",
        "description": ""
    },
    {
        "name": "Zaragoza 111",
        "date": "06.07.2016",
        "time": "",
        "slug": "160706-belchite-zaragoza-111",
        "distance": "Varias distancias",
        "distances": 1,
        "address": "",
        "location": "Belchite",
        "province": "Zaragoza",
        "region": "Arag\u00f3n",
        "web": "http:\/\/www.zaragoza111.com",
        "phone": "",
        "organizer": "ZITOWAY Sport & Adventure",
        "description": ""
    },
    {
        "name": "Zaragoza 111",
        "date": "07.07.2016",
        "time": "",
        "slug": "160707-zaragoza-zaragoza-111",
        "distance": "Varias distancias",
        "distances": 1,
        "address": "",
        "location": "Zaragoza",
        "province": "Zaragoza",
        "region": "Arag\u00f3n",
        "web": "http:\/\/www.zaragoza111.com",
        "phone": "",
        "organizer": "",
        "description": ""
    },
    {
        "name": "X Carrera San Lorenzo Rock and Run 2016",
        "date": "16.07.2016",
        "time": "",
        "slug": "160716-san-lorenzo-de-el-escorial-x-carrera-san-lorenzo-rock-and-run-2016",
        "distance": 7.77,
        "distances": 1,
        "address": "",
        "location": "San Lorenzo de El Escorial",
        "province": "Madrid",
        "region": "Madrid, Comunidad de",
        "web": "https:\/\/www.rockthesport.com\/evento\/x-carrera-san-lorenzo-rock-and-run-2016",
        "phone": "",
        "organizer": "",
        "description": ""
    },
    {
        "name": "Ultra del Nordeste",
        "date": "30.07.2016",
        "time": "",
        "slug": "160730-anaga-ultra-del-nordeste",
        "distance": 3,
        "distances": 3,
        "address": "",
        "location": "\u00c1naga",
        "province": "Santa Cruz de Tenerife",
        "region": "Canarias",
        "web": "http:\/\/www.ultradelnordeste.net",
        "phone": "",
        "organizer": "",
        "description": ""
    },
    {
        "name": "Ultra del Nordeste",
        "date": "30.07.2016",
        "time": "",
        "slug": "160730-anaga-ultra-del-nordeste",
        "distance": 30,
        "distances": 3,
        "address": "",
        "location": "\u00c1naga",
        "province": "Santa Cruz de Tenerife",
        "region": "Canarias",
        "web": "http:\/\/www.ultradelnordeste.net",
        "phone": "",
        "organizer": "",
        "description": ""
    },
    {
        "name": "Ultra del Nordeste",
        "date": "30.07.2016",
        "time": "",
        "slug": "160730-anaga-ultra-del-nordeste",
        "distance": 90,
        "distances": 3,
        "address": "",
        "location": "\u00c1naga",
        "province": "Santa Cruz de Tenerife",
        "region": "Canarias",
        "web": "http:\/\/www.ultradelnordeste.net",
        "phone": "",
        "organizer": "",
        "description": ""
    },
    {
        "name": "VII Cross Villa de Figueras",
        "date": "21.08.2016",
        "time": "",
        "slug": "160821-figueras-vii-cross-villa-de-figueras",
        "distance": 10,
        "distances": 1,
        "address": "",
        "location": "Figueras",
        "province": "Asturias",
        "region": "Asturias, Principado de",
        "web": "http:\/\/www.figuerassolidario.com\/cross\/index.php",
        "phone": "",
        "organizer": "",
        "description": ""
    },
    {
        "name": "X Canfranc-Canfranc",
        "date": "09.09.2016",
        "time": "",
        "slug": "160909-canfranc-x-canfranc-canfranc",
        "distance": 18,
        "distances": 4,
        "address": "",
        "location": "Canfranc",
        "province": "Huesca",
        "region": "Arag\u00f3n",
        "web": "http:\/\/www.canfranccanfranc.com\/",
        "phone": "",
        "organizer": "",
        "description": ""
    },
    {
        "name": "X Canfranc-Canfranc",
        "date": "09.09.2016",
        "time": "",
        "slug": "160909-canfranc-x-canfranc-canfranc",
        "distance": 45,
        "distances": 4,
        "address": "",
        "location": "Canfranc",
        "province": "Huesca",
        "region": "Arag\u00f3n",
        "web": "http:\/\/www.canfranccanfranc.com\/",
        "phone": "",
        "organizer": "",
        "description": ""
    },
    {
        "name": "X Canfranc-Canfranc",
        "date": "09.09.2016",
        "time": "",
        "slug": "160909-canfranc-x-canfranc-canfranc",
        "distance": 80,
        "distances": 4,
        "address": "",
        "location": "Canfranc",
        "province": "Huesca",
        "region": "Arag\u00f3n",
        "web": "http:\/\/www.canfranccanfranc.com\/",
        "phone": "",
        "organizer": "",
        "description": ""
    },
    {
        "name": "X Canfranc-Canfranc",
        "date": "09.09.2016",
        "time": "",
        "slug": "160909-canfranc-x-canfranc-canfranc",
        "distance": 100,
        "distances": 4,
        "address": "",
        "location": "Canfranc",
        "province": "Huesca",
        "region": "Arag\u00f3n",
        "web": "http:\/\/www.canfranccanfranc.com\/",
        "phone": "",
        "organizer": "",
        "description": ""
    },
    {
        "name": "V Trisquel Duatl\u00f3n Cross La Cabrera",
        "date": "02.10.2016",
        "time": "00:10",
        "slug": "161002-la-cabrera-v-trisquel-duatlon-cross-la-cabrera",
        "distance": "4\/15\/2,5 km",
        "distances": 1,
        "address": "Plaza de las Hermanas Rodr\u00edguez Granados",
        "location": "La Cabrera",
        "province": "Madrid",
        "region": "Madrid, Comunidad de",
        "web": "http:\/\/www.g40386.wix.com\/trisquelteam",
        "phone": "",
        "organizer": "",
        "description": "El precio de la inscripci\u00f3n es de 15 \u20ac.<br>"
    },
    {
        "name": "Carrera Renault Street Run BCN",
        "date": "22.10.2016",
        "time": "",
        "slug": "161022-esplugas-de-llobregat-carrera-renault-street-run-bcn",
        "distance": 5,
        "distances": 2,
        "address": "",
        "location": "Esplugas de Llobregat",
        "province": "Barcelona",
        "region": "Catalu\u00f1a",
        "web": "http:\/\/www.renaultstreetrun.com\/",
        "phone": "",
        "organizer": "",
        "description": ""
    },
    {
        "name": "Carrera Renault Street Run BCN",
        "date": "22.10.2016",
        "time": "",
        "slug": "161022-esplugas-de-llobregat-carrera-renault-street-run-bcn",
        "distance": 10,
        "distances": 2,
        "address": "",
        "location": "Esplugas de Llobregat",
        "province": "Barcelona",
        "region": "Catalu\u00f1a",
        "web": "http:\/\/www.renaultstreetrun.com\/",
        "phone": "",
        "organizer": "",
        "description": ""
    },
    {
        "name": "II Fuerteventura to Run 2016",
        "date": "24.10.2016",
        "time": "08:30",
        "slug": "161024-corralejo-fuerteventura-ii-fuerteventura-to-run-2016",
        "distance": 60,
        "distances": 1,
        "address": "",
        "location": "Corralejo - Fuerteventura",
        "province": "Palmas, Las",
        "region": "Canarias",
        "web": "http:\/\/www.fuerteventuratorun.com",
        "phone": "",
        "organizer": "Zitoway Sport & Adventure",
        "description": "El precio de la inscripci\u00f3n es de 190 \u20ac.<br>"
    },
    {
        "name": "Carrera Renault Street Run Madrid",
        "date": "30.10.2016",
        "time": "",
        "slug": "161030-madrid-carrera-renault-street-run-madrid",
        "distance": 5,
        "distances": 2,
        "address": "",
        "location": "Madrid",
        "province": "Madrid",
        "region": "Madrid, Comunidad de",
        "web": "http:\/\/www.renaultstreetrun.com\/",
        "phone": "",
        "organizer": "",
        "description": ""
    },
    {
        "name": "Carrera Renault Street Run Madrid",
        "date": "30.10.2016",
        "time": "",
        "slug": "161030-madrid-carrera-renault-street-run-madrid",
        "distance": 10,
        "distances": 2,
        "address": "",
        "location": "Madrid",
        "province": "Madrid",
        "region": "Madrid, Comunidad de",
        "web": "http:\/\/www.renaultstreetrun.com\/",
        "phone": "",
        "organizer": "",
        "description": ""
    },
    {
        "name": "Carrera de Pe\u00f1alara",
        "date": "17.11.2016",
        "time": "",
        "slug": "161117-cercedilla-penalara-carrera",
        "distance": 14.5,
        "distances": 1,
        "address": "Polideportivo",
        "location": "Cercedilla",
        "province": "Madrid",
        "region": "Madrid, Comunidad de",
        "web": "http:\/\/www.trailrun.es",
        "phone": "",
        "organizer": "cc",
        "description": ""
    }
]