[{"name":"Cross Alfonso X \"El Sabio\"","date":"25.11.2017","date_":{"day":"25","month":"11","year":"17","weekday":"6","yymmdd":"171125"},"time":"","slug":"villanueva-de-la-canada-3-cross-alfonso-x-el-sabio","distance":3,"distances":2,"address":"","location":"Villanueva de La Ca\u00f1ada","province":"Madrid","region":"Comunidad de Madrid","web":"http:\/\/www.crossuniversitariomadrid.com","phone":"","organizer":"","description":""},{"name":"Cross Alfonso X \"El Sabio\"","date":"25.11.2017","date_":{"day":"25","month":"11","year":"17","weekday":"6","yymmdd":"171125"},"time":"","slug":"villanueva-de-la-canada-6-cross-alfonso-x-el-sabio","distance":6,"distances":2,"address":"","location":"Villanueva de La Ca\u00f1ada","province":"Madrid","region":"Comunidad de Madrid","web":"http:\/\/www.crossuniversitariomadrid.com","phone":"","organizer":"","description":""},{"name":"Pongo Race HUESCA by LANDROVER","date":"25.11.2017","date_":{"day":"25","month":"11","year":"17","weekday":"6","yymmdd":"171125"},"time":"","slug":"quicena-pongo-race-huesca-by-landrover","distance":22,"distances":1,"address":"","location":"Quicena","province":"Huesca","region":"Arag\u00f3n","web":"http:\/\/www.pongorace.com#sthash.WR5SJADK.dpuf","phone":"","organizer":"","description":""},{"name":"94 Jean Bouin","date":"26.11.2017","date_":{"day":"26","month":"11","year":"17","weekday":"7","yymmdd":"171126"},"time":"","slug":"barcelona-5-94-jean-bouin","distance":5,"distances":2,"address":"","location":"Barcelona","province":"Barcelona","region":"Catalu\u00f1a","web":"http:\/\/www.jeanbouin.mundodeportivo.com","phone":"","organizer":"","description":""},{"name":"94 Jean Bouin","date":"26.11.2017","date_":{"day":"26","month":"11","year":"17","weekday":"7","yymmdd":"171126"},"time":"","slug":"barcelona-10-94-jean-bouin","distance":10,"distances":2,"address":"","location":"Barcelona","province":"Barcelona","region":"Catalu\u00f1a","web":"http:\/\/www.jeanbouin.mundodeportivo.com","phone":"","organizer":"","description":""},{"name":"VIII Subida a los Campa\u00f1arios","date":"26.11.2017","date_":{"day":"26","month":"11","year":"17","weekday":"7","yymmdd":"171126"},"time":"","slug":"casas-del-monte-viii-subida-a-los-campanarios","distance":16,"distances":1,"address":"","location":"Casas del Monte","province":"C\u00e1ceres","region":"Extremadura","web":"http:\/\/www.fexme.com\/circuito-de-carreras-por-montana-2017\/","phone":"","organizer":"","description":""},{"name":"10 kms Villa de Alovera","date":"26.11.2017","date_":{"day":"26","month":"11","year":"17","weekday":"7","yymmdd":"171126"},"time":"","slug":"alovera-10-kms-villa-de-alovera","distance":10,"distances":1,"address":"","location":"Alovera","province":"Guadalajara","region":"Castilla - La Mancha","web":"http:\/\/www.recorreguadalajara.com\/","phone":"","organizer":"","description":""},{"name":"Zenagas Trail","date":"26.11.2017","date_":{"day":"26","month":"11","year":"17","weekday":"7","yymmdd":"171126"},"time":"","slug":"ciudad-real-zenagas-trail","distance":30,"distances":1,"address":"","location":"Ciudad Real","province":"Ciudad Real","region":"Castilla - La Mancha","web":"http:\/\/www.zenagastrail.blogspot.com.es\/","phone":"","organizer":"","description":""},{"name":"IX Carrera Ponle Freno","date":"26.11.2017","date_":{"day":"26","month":"11","year":"17","weekday":"7","yymmdd":"171126"},"time":"","slug":"madrid-5-ix-carrera-ponle-freno","distance":5,"distances":2,"address":"","location":"Madrid","province":"Madrid","region":"Comunidad de Madrid","web":"http:\/\/www.compromiso.atresmedia.com\/ponlefreno\/","phone":"","organizer":"","description":""},{"name":"IX Carrera Ponle Freno","date":"26.11.2017","date_":{"day":"26","month":"11","year":"17","weekday":"7","yymmdd":"171126"},"time":"","slug":"madrid-10-ix-carrera-ponle-freno","distance":10,"distances":2,"address":"","location":"Madrid","province":"Madrid","region":"Comunidad de Madrid","web":"http:\/\/www.compromiso.atresmedia.com\/ponlefreno\/","phone":"","organizer":"","description":""},{"name":"I Duatl\u00f3n Cross Hu\u00e9tor T\u00e1jar","date":"26.11.2017","date_":{"day":"26","month":"11","year":"17","weekday":"7","yymmdd":"171126"},"time":"","slug":"huetor-tajar-i-duatlon-cross-huetor-tajar","distance":"5\/20\/3 km","distances":1,"address":"","location":"Hu\u00e9tor T\u00e1jar","province":"Granada","region":"Andaluc\u00eda","web":"http:\/\/www.global-tempo.com","phone":"","organizer":"","description":""},{"name":"I Carrera Vuela, contra la violencia de g\u00e9nero","date":"26.11.2017","date_":{"day":"26","month":"11","year":"17","weekday":"7","yymmdd":"171126"},"time":"","slug":"valdebebas-5-i-carrera-vuela-contra-la-violencia-de-genero","distance":5,"distances":3,"address":"","location":"Valdebebas","province":"Madrid","region":"Comunidad de Madrid","web":"http:\/\/www.carreravuela.es","phone":"","organizer":"","description":""},{"name":"I Carrera Vuela, contra la violencia de g\u00e9nero","date":"26.11.2017","date_":{"day":"26","month":"11","year":"17","weekday":"7","yymmdd":"171126"},"time":"","slug":"valdebebas-10-i-carrera-vuela-contra-la-violencia-de-genero","distance":10,"distances":3,"address":"","location":"Valdebebas","province":"Madrid","region":"Comunidad de Madrid","web":"http:\/\/www.carreravuela.es","phone":"","organizer":"","description":""},{"name":"I Carrera Vuela, contra la violencia de g\u00e9nero","date":"26.11.2017","date_":{"day":"26","month":"11","year":"17","weekday":"7","yymmdd":"171126"},"time":"","slug":"valdebebas-21-i-carrera-vuela-contra-la-violencia-de-genero","distance":21,"distances":3,"address":"","location":"Valdebebas","province":"Madrid","region":"Comunidad de Madrid","web":"http:\/\/www.carreravuela.es","phone":"","organizer":"","description":""},{"name":"VI Carrera-C\u00edvico Militar entre dos ciudades","date":"26.11.2017","date_":{"day":"26","month":"11","year":"17","weekday":"7","yymmdd":"171126"},"time":"","slug":"la-linea-de-la-concepcion-vi-carrera-civico-militar-entre-dos-ciudades","distance":12,"distances":1,"address":"","location":"La L\u00ednea de la Concepci\u00f3n","province":"C\u00e1diz","region":"Andaluc\u00eda","web":"http:\/\/www.correrenandalucia.com","phone":"","organizer":"","description":""},{"name":"II Carrera de las Empresas ESIC-ABC de Sevilla 2017","date":"26.11.2017","date_":{"day":"26","month":"11","year":"17","weekday":"7","yymmdd":"171126"},"time":"","slug":"sevilla-ii-carrera-de-las-empresas-esic-abc-de-sevilla-2017","distance":8,"distances":1,"address":"","location":"Sevilla","province":"Sevilla","region":"Andaluc\u00eda","web":"http:\/\/www.carreraempresasesicabc.com","phone":"","organizer":"","description":""},{"name":"IV Trail Humedales Manchegos","date":"26.11.2017","date_":{"day":"26","month":"11","year":"17","weekday":"7","yymmdd":"171126"},"time":"09:00","slug":"villafranca-de-los-caballeros-iv-trail-humedales-manchegos","distance":"Varias distancias","distances":1,"address":"","location":"Villafranca de los Caballeros","province":"Toledo","region":"Castilla - La Mancha","web":"http:\/\/www.trailhumedalesmanchegos.wordpress.com","phone":"","organizer":"","description":""},{"name":"IV Trail Monte Caballar","date":"26.11.2017","date_":{"day":"26","month":"11","year":"17","weekday":"7","yymmdd":"171126"},"time":"09:30","slug":"penilla-de-toranzo-iv-trail-monte-caballar","distance":18,"distances":1,"address":"","location":"Penilla de Toranzo","province":"Cantabria","region":"Cantabria","web":"http:\/\/www.carrerasconencanto.com","phone":"","organizer":"","description":""},{"name":"III Trail Julia Cemella Acci Guadix","date":"26.11.2017","date_":{"day":"26","month":"11","year":"17","weekday":"7","yymmdd":"171126"},"time":"09:30","slug":"guadix-iii-trail-julia-cemella-acci-guadix","distance":23,"distances":1,"address":"","location":"Guadix","province":"Granada","region":"Andaluc\u00eda","web":"http:\/\/www.global-tempo.com","phone":"","organizer":"","description":""},{"name":"I Carrera Popular E.LECLERC Pinto","date":"26.11.2017","date_":{"day":"26","month":"11","year":"17","weekday":"7","yymmdd":"171126"},"time":"10:00","slug":"pinto-5-i-carrera-popular-e-leclerc-pinto","distance":5,"distances":2,"address":"","location":"Pinto","province":"Madrid","region":"Comunidad de Madrid","web":"http:\/\/www.ticketsport.es\/evento\/i-carrera-popular-eleclerc-pinto","phone":"","organizer":"","description":""},{"name":"I Carrera Popular E.LECLERC Pinto","date":"26.11.2017","date_":{"day":"26","month":"11","year":"17","weekday":"7","yymmdd":"171126"},"time":"10:00","slug":"pinto-10-i-carrera-popular-e-leclerc-pinto","distance":10,"distances":2,"address":"","location":"Pinto","province":"Madrid","region":"Comunidad de Madrid","web":"http:\/\/www.ticketsport.es\/evento\/i-carrera-popular-eleclerc-pinto","phone":"","organizer":"","description":""},{"name":"XI Carrera Urbana Sierra de L\u00edjar","date":"26.11.2017","date_":{"day":"26","month":"11","year":"17","weekday":"7","yymmdd":"171126"},"time":"10:00","slug":"algodonales-xi-carrera-urbana-sierra-de-lijar","distance":10,"distances":1,"address":"","location":"Algodonales","province":"C\u00e1diz","region":"Andaluc\u00eda","web":"http:\/\/www.correrenandalucia.com","phone":"","organizer":"","description":""},{"name":"XXXIII Media Marat\u00f3n C\u00f3rdoba","date":"26.11.2017","date_":{"day":"26","month":"11","year":"17","weekday":"7","yymmdd":"171126"},"time":"10:00","slug":"cordoba-xxxiii-media-maraton-cordoba","distance":21,"distances":1,"address":"","location":"C\u00f3rdoba","province":"C\u00f3rdoba","region":"Andaluc\u00eda","web":"http:\/\/www.correrenandalucia.com","phone":"","organizer":"","description":""},{"name":"Abedurio Trail Race","date":"26.11.2017","date_":{"day":"26","month":"11","year":"17","weekday":"7","yymmdd":"171126"},"time":"10:30","slug":"el-entrego-abedurio-trail-race","distance":16,"distances":1,"address":"","location":"El Entrego","province":"Asturias","region":"Principado de Asturias","web":"http:\/\/www.correrasturias.es\/abeduriu-trail-race","phone":"","organizer":"","description":""},{"name":"Cross Universidad CEU San Pablo","date":"02.12.2017","date_":{"day":"2","month":"12","year":"17","weekday":"6","yymmdd":"171202"},"time":"","slug":"boadilla-del-monte-3-cross-universidad-ceu-san-pablo","distance":3,"distances":2,"address":"","location":"Boadilla del Monte","province":"Madrid","region":"Comunidad de Madrid","web":"http:\/\/www.crossuniversitariomadrid.com","phone":"","organizer":"","description":""},{"name":"Cross Universidad CEU San Pablo","date":"02.12.2017","date_":{"day":"2","month":"12","year":"17","weekday":"6","yymmdd":"171202"},"time":"","slug":"boadilla-del-monte-6-cross-universidad-ceu-san-pablo","distance":6,"distances":2,"address":"","location":"Boadilla del Monte","province":"Madrid","region":"Comunidad de Madrid","web":"http:\/\/www.crossuniversitariomadrid.com","phone":"","organizer":"","description":""},{"name":"Madrid Tactika Trail San Agust\u00edn del Guadalix","date":"02.12.2017","date_":{"day":"2","month":"12","year":"17","weekday":"6","yymmdd":"171202"},"time":"","slug":"san-agustin-del-guadalix-madrid-tactika-trail-san-agustin-del-guadalix","distance":21,"distances":1,"address":"","location":"San Agust\u00edn del Guadalix","province":"Madrid","region":"Comunidad de Madrid","web":"http:\/\/www.tactikatrail.com\/","phone":"","organizer":"","description":""},{"name":"XIV Cross Balmaseda-Zalla-Balmaseda","date":"03.12.2017","date_":{"day":"3","month":"12","year":"17","weekday":"7","yymmdd":"171203"},"time":"","slug":"balmaseda-xiv-cross-balmaseda-zalla-balmaseda","distance":"Varias distancias","distances":1,"address":"","location":"Balmaseda","province":"Bizkaia","region":"Pa\u00eds Vasco","web":"http:\/\/www.konsportschallenger.com","phone":"","organizer":"","description":""},{"name":"Trail Ruta del Cobre","date":"03.12.2017","date_":{"day":"3","month":"12","year":"17","weekday":"7","yymmdd":"171203"},"time":"","slug":"villanueva-del-pardillo-9-trail-ruta-del-cobre","distance":9,"distances":2,"address":"","location":"Villanueva del Pardillo","province":"Madrid","region":"Comunidad de Madrid","web":"http:\/\/www.circuito4desafios.com","phone":"","organizer":"","description":""},{"name":"Trail Ruta del Cobre","date":"03.12.2017","date_":{"day":"3","month":"12","year":"17","weekday":"7","yymmdd":"171203"},"time":"","slug":"villanueva-del-pardillo-20-trail-ruta-del-cobre","distance":20,"distances":2,"address":"","location":"Villanueva del Pardillo","province":"Madrid","region":"Comunidad de Madrid","web":"http:\/\/www.circuito4desafios.com","phone":"","organizer":"","description":""},{"name":"VII Carrera Popular y Marcha Senderista \"CERRO MARMOTA\"","date":"03.12.2017","date_":{"day":"3","month":"12","year":"17","weekday":"7","yymmdd":"171203"},"time":"","slug":"colmenar-viejo-10-vii-carrera-popular-y-marcha-senderista-cerro-marmota","distance":10,"distances":2,"address":"C\/ Huertas (junto al polideportivo \"Lorenzo Rico\")","location":"Colmenar Viejo","province":"Madrid","region":"Comunidad de Madrid","web":"http:\/\/www.asociacionpablougarte.es","phone":"","organizer":"","description":""},{"name":"VII Carrera Popular y Marcha Senderista \"CERRO MARMOTA\"","date":"03.12.2017","date_":{"day":"3","month":"12","year":"17","weekday":"7","yymmdd":"171203"},"time":"","slug":"colmenar-viejo-20-vii-carrera-popular-y-marcha-senderista-cerro-marmota","distance":20,"distances":2,"address":"C\/ Huertas (junto al polideportivo \"Lorenzo Rico\")","location":"Colmenar Viejo","province":"Madrid","region":"Comunidad de Madrid","web":"http:\/\/www.asociacionpablougarte.es","phone":"","organizer":"","description":""},{"name":"XXVII Ruta de Santa B\u00e1rbara","date":"03.12.2017","date_":{"day":"3","month":"12","year":"17","weekday":"7","yymmdd":"171203"},"time":"","slug":"langreo-xxvii-ruta-de-santa-barbara","distance":13,"distances":1,"address":"","location":"Langreo","province":"Asturias","region":"Principado de Asturias","web":"http:\/\/www.correrasturias.es\/ruta-santa-barbara","phone":"","organizer":"","description":""},{"name":"II Trail Pozo Los Moros","date":"03.12.2017","date_":{"day":"3","month":"12","year":"17","weekday":"7","yymmdd":"171203"},"time":"","slug":"bornos-ii-trail-pozo-los-moros","distance":23,"distances":1,"address":"","location":"Bornos","province":"C\u00e1diz","region":"Andaluc\u00eda","web":"http:\/\/www.clubciudaddellago.es","phone":"","organizer":"","description":""},{"name":"I Carrera Solidaria Crucera Ifitness","date":"03.12.2017","date_":{"day":"3","month":"12","year":"17","weekday":"7","yymmdd":"171203"},"time":"","slug":"cadiz-i-carrera-solidaria-crucera-ifitness","distance":5,"distances":1,"address":"","location":"C\u00e1diz","province":"C\u00e1diz","region":"Andaluc\u00eda","web":"http:\/\/www.correrenandalucia.com","phone":"","organizer":"","description":""},{"name":"XXXVII Trofeo AKILES","date":"03.12.2017","date_":{"day":"3","month":"12","year":"17","weekday":"7","yymmdd":"171203"},"time":"09:00","slug":"madrid-5-xxxvii-trofeo-akiles","distance":5,"distances":2,"address":"Casa de Campo","location":"Madrid","province":"Madrid","region":"Comunidad de Madrid","web":"http:\/\/www.clubakiles.com","phone":"","organizer":"","description":""},{"name":"XXXVII Trofeo AKILES","date":"03.12.2017","date_":{"day":"3","month":"12","year":"17","weekday":"7","yymmdd":"171203"},"time":"09:00","slug":"madrid-10-xxxvii-trofeo-akiles","distance":10,"distances":2,"address":"Casa de Campo","location":"Madrid","province":"Madrid","region":"Comunidad de Madrid","web":"http:\/\/www.clubakiles.com","phone":"","organizer":"","description":""},{"name":"III San Silvestr\u00edn de Dehesas","date":"03.12.2017","date_":{"day":"3","month":"12","year":"17","weekday":"7","yymmdd":"171203"},"time":"11:30","slug":"ponferrada-iii-san-silvestrin-de-dehesas","distance":5,"distances":1,"address":"","location":"Ponferrada","province":"Le\u00f3n","region":"Castilla y Le\u00f3n","web":"http:\/\/www.carrerasconencanto.com","phone":"","organizer":"","description":""},{"name":"IX Carrera del Estrecho","date":"08.12.2017","date_":{"day":"8","month":"12","year":"17","weekday":"5","yymmdd":"171208"},"time":"11:00","slug":"tarifa-ix-carrera-del-estrecho","distance":6.4,"distances":1,"address":"","location":"Tarifa","province":"C\u00e1diz","region":"Andaluc\u00eda","web":"http:\/\/www.gescon-chip.com","phone":"","organizer":"","description":""},{"name":"XI Carrera Popular Centenario Batalla de Villaviciosa \u2013 Brihuega","date":"10.12.2017","date_":{"day":"10","month":"12","year":"17","weekday":"7","yymmdd":"171210"},"time":"","slug":"brihuega-xi-carrera-popular-centenario-batalla-de-villaviciosa-brihuega","distance":7,"distances":1,"address":"","location":"Brihuega","province":"Guadalajara","region":"Castilla - La Mancha","web":"http:\/\/www.recorreguadalajara.com","phone":"","organizer":"","description":""},{"name":"VI Carrera Popular Fuente Palmera","date":"10.12.2017","date_":{"day":"10","month":"12","year":"17","weekday":"7","yymmdd":"171210"},"time":"","slug":"fuente-palmera-vi-carrera-popular-fuente-palmera","distance":8.5,"distances":1,"address":"","location":"Fuente Palmera","province":"Granada","region":"Andaluc\u00eda","web":"http:\/\/www.global-tempo.com","phone":"","organizer":"","description":""},{"name":"Zurich Marat\u00f3n M\u00e1laga 2017","date":"10.12.2017","date_":{"day":"10","month":"12","year":"17","weekday":"7","yymmdd":"171210"},"time":"09:00","slug":"malaga-zurich-maraton-malaga-2017","distance":42,"distances":1,"address":"","location":"M\u00e1laga","province":"M\u00e1laga","region":"Andaluc\u00eda","web":"http:\/\/www.zurichmaratonmalaga.es\/","phone":"","organizer":"","description":""},{"name":"VI Carrera de Pap\u00e1 Noel","date":"10.12.2017","date_":{"day":"10","month":"12","year":"17","weekday":"7","yymmdd":"171210"},"time":"09:00","slug":"madrid-vi-carrera-de-papa-noel","distance":5,"distances":1,"address":"Paseo del Prado (Pza. de Murillo)","location":"Madrid","province":"Madrid","region":"Comunidad de Madrid","web":"http:\/\/www.lacarreradepapanoel.com\/","phone":"","organizer":"","description":""},{"name":"VI Trail de Albu\u00f1uelas","date":"10.12.2017","date_":{"day":"10","month":"12","year":"17","weekday":"7","yymmdd":"171210"},"time":"10:00","slug":"albunuelas-15-vi-trail-de-albunuelas","distance":15,"distances":2,"address":"","location":"Albu\u00f1uelas","province":"Granada","region":"Andaluc\u00eda","web":"http:\/\/www.global-tempo.com","phone":"","organizer":"","description":""},{"name":"VI Trail de Albu\u00f1uelas","date":"10.12.2017","date_":{"day":"10","month":"12","year":"17","weekday":"7","yymmdd":"171210"},"time":"10:00","slug":"albunuelas-25-vi-trail-de-albunuelas","distance":25,"distances":2,"address":"","location":"Albu\u00f1uelas","province":"Granada","region":"Andaluc\u00eda","web":"http:\/\/www.global-tempo.com","phone":"","organizer":"","description":""},{"name":"Cross Universidad Aut\u00f3noma de Madrid","date":"16.12.2017","date_":{"day":"16","month":"12","year":"17","weekday":"6","yymmdd":"171216"},"time":"","slug":"valdelatas-4-cross-universidad-autonoma-de-madrid","distance":4,"distances":2,"address":"","location":"Valdelatas","province":"Madrid","region":"Comunidad de Madrid","web":"http:\/\/www.crossuniversitariomadrid.com","phone":"","organizer":"","description":""},{"name":"Cross Universidad Aut\u00f3noma de Madrid","date":"16.12.2017","date_":{"day":"16","month":"12","year":"17","weekday":"6","yymmdd":"171216"},"time":"","slug":"valdelatas-6-cross-universidad-autonoma-de-madrid","distance":6,"distances":2,"address":"","location":"Valdelatas","province":"Madrid","region":"Comunidad de Madrid","web":"http:\/\/www.crossuniversitariomadrid.com","phone":"","organizer":"","description":""},{"name":"Carrera de Pap\u00e1 Noel","date":"16.12.2017","date_":{"day":"16","month":"12","year":"17","weekday":"6","yymmdd":"171216"},"time":"09:00","slug":"madrid-carrera-de-papa-noel","distance":5,"distances":1,"address":"","location":"Madrid","province":"Madrid","region":"Comunidad de Madrid","web":"http:\/\/www.lacarreradepapanoel.com","phone":"","organizer":"","description":""},{"name":"Sanitas Marca Running Series Valencia","date":"17.12.2017","date_":{"day":"17","month":"12","year":"17","weekday":"7","yymmdd":"171217"},"time":"","slug":"valencia-sanitas-marca-running-series-valencia","distance":10,"distances":1,"address":"","location":"Valencia","province":"Valencia\/Val\u00e9ncia","region":"Comunitat Valenciana","web":"http:\/\/www.sanitasmarcarunningseries.com\/","phone":"","organizer":"","description":""},{"name":"XXIX Memorial Galo S\u00e1nchez Bermejo","date":"17.12.2017","date_":{"day":"17","month":"12","year":"17","weekday":"7","yymmdd":"171217"},"time":"","slug":"daimiel-xxix-memorial-galo-sanchez-bermejo","distance":10,"distances":1,"address":"","location":"Daimiel","province":"Ciudad Real","region":"Castilla - La Mancha","web":"http:\/\/www.carrerasciudadreal.es","phone":"","organizer":"","description":""},{"name":"XVIII edici\u00f3n de la Media Marat\u00f3n de Guadalajara y 11Kms populares","date":"17.12.2017","date_":{"day":"17","month":"12","year":"17","weekday":"7","yymmdd":"171217"},"time":"","slug":"guadalajara-xviii-edicion-de-la-media-maraton-de-guadalajara-y-11kms-populares","distance":"","distances":1,"address":"","location":"Guadalajara","province":"Guadalajara","region":"Castilla - La Mancha","web":"http:\/\/www.lamediadeguada.blogspot.com.es\/","phone":"","organizer":"","description":""},{"name":"Media Marat\u00f3n Sevilla Villafranca y Los Palacios","date":"17.12.2017","date_":{"day":"17","month":"12","year":"17","weekday":"7","yymmdd":"171217"},"time":"","slug":"los-palacios-y-villafranca-media-maraton-sevilla-villafranca-y-los-palacios","distance":21,"distances":1,"address":"","location":"Los Palacios y Villafranca","province":"Sevilla","region":"Andaluc\u00eda","web":"http:\/\/www.correrenandalucia.com","phone":"","organizer":"","description":""},{"name":"IV Carrera de Empresas ESIC","date":"17.12.2017","date_":{"day":"17","month":"12","year":"17","weekday":"7","yymmdd":"171217"},"time":"09:30","slug":"zaragoza-iv-carrera-de-empresas-esic","distance":10,"distances":1,"address":"","location":"Zaragoza","province":"Zaragoza","region":"Arag\u00f3n","web":"http:\/\/www.carreraempresasesic.com\/","phone":"","organizer":"","description":""},{"name":"III Carrera de Navidad Villa de Figueras","date":"23.12.2017","date_":{"day":"23","month":"12","year":"17","weekday":"6","yymmdd":"171223"},"time":"17:00","slug":"figueras-castropol-iii-carrera-de-navidad-villa-de-figueras","distance":4.5,"distances":1,"address":"","location":"Figueras - Castropol","province":"Asturias","region":"Principado de Asturias","web":"http:\/\/www.figuerassolidario.com","phone":"","organizer":"","description":""},{"name":"San Silvestre de Mira","date":"24.12.2017","date_":{"day":"24","month":"12","year":"17","weekday":"7","yymmdd":"171224"},"time":"","slug":"mira-san-silvestre-de-mira","distance":5,"distances":1,"address":"","location":"Mira","province":"Cuenca","region":"Castilla - La Mancha","web":"http:\/\/www.mira.es\/pueblo","phone":"","organizer":"","description":""},{"name":"San Silvestre de Astillero","date":"26.12.2017","date_":{"day":"26","month":"12","year":"17","weekday":"2","yymmdd":"171226"},"time":"","slug":"astilero-san-silvestre-de-astillero","distance":5,"distances":1,"address":"","location":"Astilero","province":"Cantabria","region":"Cantabria","web":"http:\/\/www.astillero.es","phone":"","organizer":"","description":""},{"name":"San Silvestre de Torrelavega","date":"26.12.2017","date_":{"day":"26","month":"12","year":"17","weekday":"2","yymmdd":"171226"},"time":"","slug":"torrelavega-san-silvestre-de-torrelavega","distance":5,"distances":1,"address":"","location":"Torrelavega","province":"Cantabria","region":"Cantabria","web":"http:\/\/www.sansilvestre2015.blogspot.com.es\/p\/inscripciones.html","phone":"","organizer":"","description":""},{"name":"San Silvestre Molinesa","date":"30.12.2017","date_":{"day":"30","month":"12","year":"17","weekday":"6","yymmdd":"171230"},"time":"","slug":"molina-de-aragon-san-silvestre-molinesa","distance":10,"distances":1,"address":"","location":"Molina de Arag\u00f3n","province":"Guadalajara","region":"Castilla - La Mancha","web":"http:\/\/www.molina-aragon.com","phone":"","organizer":"","description":""},{"name":"San Silvestre de Santander 2017","date":"30.12.2017","date_":{"day":"30","month":"12","year":"17","weekday":"6","yymmdd":"171230"},"time":"","slug":"santander-san-silvestre-de-santander-2017","distance":5,"distances":1,"address":"","location":"Santander","province":"Cantabria","region":"Cantabria","web":"http:\/\/www.fcatle.com\/","phone":"","organizer":"","description":""},{"name":"San Silvestre de Castro Urdiales","date":"30.12.2017","date_":{"day":"30","month":"12","year":"17","weekday":"6","yymmdd":"171230"},"time":"","slug":"castro-urdiales-san-silvestre-de-castro-urdiales","distance":5,"distances":1,"address":"","location":"Castro Urdiales","province":"Cantabria","region":"Cantabria","web":"http:\/\/www.castroconfidencial.es\/","phone":"","organizer":"","description":""},{"name":"San Silvestre de Gij\u00f3n 2017","date":"30.12.2017","date_":{"day":"30","month":"12","year":"17","weekday":"6","yymmdd":"171230"},"time":"","slug":"gijon-san-silvestre-de-gijon-2017","distance":5,"distances":1,"address":"","location":"Gij\u00f3n","province":"Asturias","region":"Principado de Asturias","web":"http:\/\/www.championchipnorte.com","phone":"","organizer":"","description":""},{"name":"San Silvestre de Reinosa","date":"30.12.2017","date_":{"day":"30","month":"12","year":"17","weekday":"6","yymmdd":"171230"},"time":"17:00","slug":"reinosa-san-silvestre-de-reinosa","distance":5,"distances":1,"address":"","location":"Reinosa","province":"Cantabria","region":"Cantabria","web":"http:\/\/www.aytoreinosa.es","phone":"","organizer":"","description":""},{"name":"San Silvestre Ciudad de Teruel 2017","date":"30.12.2017","date_":{"day":"30","month":"12","year":"17","weekday":"6","yymmdd":"171230"},"time":"17:00","slug":"teruel-san-silvestre-ciudad-de-teruel-2017","distance":6,"distances":1,"address":"","location":"Teruel","province":"Teruel","region":"Arag\u00f3n","web":"http:\/\/www.teruel.es\/portal\/","phone":"","organizer":"","description":""},{"name":"San Silvestre de Oviedo","date":"30.12.2017","date_":{"day":"30","month":"12","year":"17","weekday":"6","yymmdd":"171230"},"time":"17:30","slug":"oviedo-san-silvestre-de-oviedo","distance":5,"distances":1,"address":"","location":"Oviedo","province":"Asturias","region":"Principado de Asturias","web":"http:\/\/www.sansilvestreoviedo.com","phone":"","organizer":"","description":""},{"name":"IV San Silvestre Realejera","date":"31.12.2017","date_":{"day":"31","month":"12","year":"17","weekday":"7","yymmdd":"171231"},"time":"","slug":"los-realejos-iv-san-silvestre-realejera","distance":5,"distances":1,"address":"","location":"Los Realejos","province":"Santa Cruz de Tenerife","region":"Canarias","web":"http:\/\/www.canarypol.com\/san-silvestre-realejera-2017\/","phone":"","organizer":"","description":""},{"name":"San Silvestre Membrilla","date":"31.12.2017","date_":{"day":"31","month":"12","year":"17","weekday":"7","yymmdd":"171231"},"time":"","slug":"membrilla-san-silvestre-membrilla","distance":6,"distances":1,"address":"","location":"Membrilla","province":"Ciudad Real","region":"Castilla - La Mancha","web":"http:\/\/www.camembrilla.es\/","phone":"","organizer":"","description":""},{"name":"San Silvestre Alcarre\u00f1a","date":"31.12.2017","date_":{"day":"31","month":"12","year":"17","weekday":"7","yymmdd":"171231"},"time":"","slug":"azuqueca-de-henares-san-silvestre-alcarrena","distance":7,"distances":1,"address":"","location":"Azuqueca de Henares","province":"Guadalajara","region":"Castilla - La Mancha","web":"http:\/\/www.sansilvestreazuqueca.es","phone":"","organizer":"","description":""},{"name":"San Silvestre de Barbastro 2017","date":"31.12.2017","date_":{"day":"31","month":"12","year":"17","weekday":"7","yymmdd":"171231"},"time":"","slug":"barbastro-san-silvestre-de-barbastro-2017","distance":5,"distances":1,"address":"","location":"Barbastro","province":"Huesca","region":"Arag\u00f3n","web":"http:\/\/www.cabarbastro.com\/","phone":"","organizer":"","description":""},{"name":"III San Silvestre Colmenar Viejo","date":"31.12.2017","date_":{"day":"31","month":"12","year":"17","weekday":"7","yymmdd":"171231"},"time":"10:00","slug":"comenar-viejo-iii-san-silvestre-colmenar-viejo","distance":10,"distances":1,"address":"","location":"Comenar Viejo","province":"Madrid","region":"Comunidad de Madrid","web":"http:\/\/www.sansilvestrecolmenarviejo.com","phone":"","organizer":"","description":""},{"name":"VII San Silvestre Las Rozas","date":"31.12.2017","date_":{"day":"31","month":"12","year":"17","weekday":"7","yymmdd":"171231"},"time":"10:00","slug":"las-rozas-5-vii-san-silvestre-las-rozas","distance":5,"distances":2,"address":"","location":"Las Rozas","province":"Madrid","region":"Comunidad de Madrid","web":"http:\/\/www.sansilvestredelasrozas.es","phone":"","organizer":"","description":""},{"name":"VII San Silvestre Las Rozas","date":"31.12.2017","date_":{"day":"31","month":"12","year":"17","weekday":"7","yymmdd":"171231"},"time":"10:00","slug":"las-rozas-10-vii-san-silvestre-las-rozas","distance":10,"distances":2,"address":"","location":"Las Rozas","province":"Madrid","region":"Comunidad de Madrid","web":"http:\/\/www.sansilvestredelasrozas.es","phone":"","organizer":"","description":""},{"name":"San Silvestre Sant Cugat","date":"31.12.2017","date_":{"day":"31","month":"12","year":"17","weekday":"7","yymmdd":"171231"},"time":"17:00","slug":"barcelona-san-silvestre-sant-cugat","distance":10,"distances":1,"address":"","location":"Barcelona","province":"Barcelona","region":"Catalu\u00f1a","web":"http:\/\/www.santsilvestre.com\/es","phone":"","organizer":"","description":""},{"name":"Carrera de San Ant\u00f3n","date":"13.01.2018","date_":{"day":"13","month":"1","year":"18","weekday":"6","yymmdd":"180113"},"time":"19:00","slug":"jaen-carrera-de-san-anton","distance":9,"distances":1,"address":"","location":"Ja\u00e9n","province":"Ja\u00e9n","region":"Andaluc\u00eda","web":"http:\/\/www.correrenandalucia.com","phone":"","organizer":"","description":""},{"name":"X-Trail Cerro Muriano 2018","date":"14.01.2018","date_":{"day":"14","month":"1","year":"18","weekday":"7","yymmdd":"180114"},"time":"","slug":"cordoba-17-x-trail-cerro-muriano-2018","distance":17,"distances":2,"address":"","location":"C\u00f3rdoba","province":"C\u00f3rdoba","region":"Andaluc\u00eda","web":"http:\/\/www.cdsportsland.com","phone":"","organizer":"","description":""},{"name":"X-Trail Cerro Muriano 2018","date":"14.01.2018","date_":{"day":"14","month":"1","year":"18","weekday":"7","yymmdd":"180114"},"time":"","slug":"cordoba-27-x-trail-cerro-muriano-2018","distance":27,"distances":2,"address":"","location":"C\u00f3rdoba","province":"C\u00f3rdoba","region":"Andaluc\u00eda","web":"http:\/\/www.cdsportsland.com","phone":"","organizer":"","description":""},{"name":"Trail de la Fabada","date":"21.01.2018","date_":{"day":"21","month":"1","year":"18","weekday":"7","yymmdd":"180121"},"time":"","slug":"navalagamella-9-trail-de-la-fabada","distance":9,"distances":2,"address":"","location":"Navalagamella","province":"Madrid","region":"Comunidad de Madrid","web":"http:\/\/www.circuito4desafios.com","phone":"","organizer":"","description":""},{"name":"Trail de la Fabada","date":"21.01.2018","date_":{"day":"21","month":"1","year":"18","weekday":"7","yymmdd":"180121"},"time":"","slug":"navalagamella-25-trail-de-la-fabada","distance":25,"distances":2,"address":"","location":"Navalagamella","province":"Madrid","region":"Comunidad de Madrid","web":"http:\/\/www.circuito4desafios.com","phone":"","organizer":"","description":""},{"name":"Media Marat\u00f3n Santa Pola","date":"21.01.2018","date_":{"day":"21","month":"1","year":"18","weekday":"7","yymmdd":"180121"},"time":"10:30","slug":"santa-pola-media-maraton-santa-pola","distance":21,"distances":1,"address":"","location":"Santa Pola","province":"Alicante\/Alacant","region":"Comunitat Valenciana","web":"http:\/\/www.ticketsport.es\/evento\/media-maraton-santa-pola-2018","phone":"","organizer":"","description":""},{"name":"XX Carrera Popular de ALOVERA","date":"21.01.2018","date_":{"day":"21","month":"1","year":"18","weekday":"7","yymmdd":"180121"},"time":"11:00","slug":"alovera-xx-carrera-popular-de-alovera","distance":10,"distances":1,"address":"","location":"Alovera","province":"Guadalajara","region":"Castilla - La Mancha","web":"http:\/\/www.clubatletismoalovera.es","phone":"","organizer":"","description":""},{"name":"EDP Medio Marat\u00f3n Sevilla 2018","date":"28.01.2018","date_":{"day":"28","month":"1","year":"18","weekday":"7","yymmdd":"180128"},"time":"","slug":"sevilla-edp-medio-maraton-sevilla-2018","distance":21,"distances":1,"address":"","location":"Sevilla","province":"Sevilla","region":"Andaluc\u00eda","web":"http:\/\/www.correrenandalucia.com\/","phone":"","organizer":"","description":""},{"name":"Dos Leguas Fuente de la Chopera 2018","date":"04.02.2018","date_":{"day":"4","month":"2","year":"18","weekday":"7","yymmdd":"180204"},"time":"","slug":"leganes-dos-leguas-fuente-de-la-chopera-2018","distance":11,"distances":1,"address":"","location":"Legan\u00e9s","province":"Madrid","region":"Comunidad de Madrid","web":"http:\/\/www.maratonianosdeleganes.com","phone":"","organizer":"","description":""},{"name":"Dos Leguas Fuente de la Chopera","date":"04.02.2018","date_":{"day":"4","month":"2","year":"18","weekday":"7","yymmdd":"180204"},"time":"10:30","slug":"leganes-dos-leguas-fuente-de-la-chopera","distance":11,"distances":1,"address":"","location":"Legan\u00e9s","province":"Madrid","region":"Comunidad de Madrid","web":"http:\/\/www.maratonianosdeleganes.com","phone":"","organizer":"","description":""},{"name":"Trail del Cocido","date":"18.02.2018","date_":{"day":"18","month":"2","year":"18","weekday":"7","yymmdd":"180218"},"time":"","slug":"valdemorillo-9-trail-del-cocido","distance":9,"distances":2,"address":"","location":"Valdemorillo","province":"Madrid","region":"Comunidad de Madrid","web":"http:\/\/www.circuito4desafios.com","phone":"","organizer":"","description":""},{"name":"Trail del Cocido","date":"18.02.2018","date_":{"day":"18","month":"2","year":"18","weekday":"7","yymmdd":"180218"},"time":"","slug":"valdemorillo-23-trail-del-cocido","distance":23,"distances":2,"address":"","location":"Valdemorillo","province":"Madrid","region":"Comunidad de Madrid","web":"http:\/\/www.circuito4desafios.com","phone":"","organizer":"","description":""},{"name":"Zurich Marat\u00f3n Sevilla 2018","date":"25.02.2018","date_":{"day":"25","month":"2","year":"18","weekday":"7","yymmdd":"180225"},"time":"08:30","slug":"sevilla-zurich-maraton-sevilla-2018","distance":42,"distances":1,"address":"","location":"Sevilla","province":"Sevilla","region":"Andaluc\u00eda","web":"http:\/\/www.zurichmaratonsevilla.es","phone":"","organizer":"","description":""},{"name":"Ultra Trail Alcauc\u00edn","date":"28.04.2018","date_":{"day":"28","month":"4","year":"18","weekday":"6","yymmdd":"180428"},"time":"07:00","slug":"alcaucin-22-ultra-trail-alcaucin","distance":22,"distances":3,"address":"","location":"Alcauc\u00edn","province":"M\u00e1laga","region":"Andaluc\u00eda","web":"http:\/\/www.inscripciones.ranckr.com","phone":"","organizer":"","description":""},{"name":"Ultra Trail Alcauc\u00edn","date":"28.04.2018","date_":{"day":"28","month":"4","year":"18","weekday":"6","yymmdd":"180428"},"time":"07:00","slug":"alcaucin-60-ultra-trail-alcaucin","distance":60,"distances":3,"address":"","location":"Alcauc\u00edn","province":"M\u00e1laga","region":"Andaluc\u00eda","web":"http:\/\/www.inscripciones.ranckr.com","phone":"","organizer":"","description":""},{"name":"Ultra Trail Alcauc\u00edn","date":"28.04.2018","date_":{"day":"28","month":"4","year":"18","weekday":"6","yymmdd":"180428"},"time":"07:00","slug":"alcaucin-100-ultra-trail-alcaucin","distance":100,"distances":3,"address":"","location":"Alcauc\u00edn","province":"M\u00e1laga","region":"Andaluc\u00eda","web":"http:\/\/www.inscripciones.ranckr.com","phone":"","organizer":"","description":""},{"name":"Trail de los Vientos","date":"06.05.2018","date_":{"day":"6","month":"5","year":"18","weekday":"7","yymmdd":"180506"},"time":"","slug":"las-navas-del-marques-10-trail-de-los-vientos","distance":10,"distances":3,"address":"","location":"Las Navas del Marqu\u00e9s","province":"\u00c1vila","region":"Castilla y Le\u00f3n","web":"http:\/\/www.circuito4desafios.com\/c4d-reglamento","phone":"","organizer":"","description":""},{"name":"Trail de los Vientos","date":"06.05.2018","date_":{"day":"6","month":"5","year":"18","weekday":"7","yymmdd":"180506"},"time":"","slug":"las-navas-del-marques-24-trail-de-los-vientos","distance":24,"distances":3,"address":"","location":"Las Navas del Marqu\u00e9s","province":"\u00c1vila","region":"Castilla y Le\u00f3n","web":"http:\/\/www.circuito4desafios.com\/c4d-reglamento","phone":"","organizer":"","description":""},{"name":"Trail de los Vientos","date":"06.05.2018","date_":{"day":"6","month":"5","year":"18","weekday":"7","yymmdd":"180506"},"time":"","slug":"las-navas-del-marques-41-trail-de-los-vientos","distance":41,"distances":3,"address":"","location":"Las Navas del Marqu\u00e9s","province":"\u00c1vila","region":"Castilla y Le\u00f3n","web":"http:\/\/www.circuito4desafios.com\/c4d-reglamento","phone":"","organizer":"","description":""},{"name":"X Formentera to Run 2018","date":"27.05.2018","date_":{"day":"27","month":"5","year":"18","weekday":"7","yymmdd":"180527"},"time":"","slug":"formentera-x-formentera-to-run-2018","distance":"Varias distancias","distances":1,"address":"","location":"Formentera","province":"Illes Balears","region":"Illes Balears","web":"http:\/\/www.formenteratorun.com\/","phone":"","organizer":"","description":""},{"name":"5\u00aa Formentera Trail 21.1","date":"02.06.2018","date_":{"day":"2","month":"6","year":"18","weekday":"6","yymmdd":"180602"},"time":"","slug":"formentera-5a-formentera-trail-21-1","distance":21,"distances":1,"address":"Faro de la Mola","location":"Formentera","province":"Illes Balears","region":"Illes Balears","web":"http:\/\/www.formenteratrail.com","phone":"","organizer":"","description":""}]